[
  {
    "placeId": "ChIJLWlCk9GY4jARpNGpRcq5ABY",
    "title": "Cheaper & Better Street Food",
    "city": "bangkok",
    "imagePath": "/generated-images/bangkok_01_cheaper-better-street-food_v2.png",
    "location": {
      "lat": 13.72507,
      "lng": 100.5229338
    },
    "prompt": "A Thai restaurant serving delicious food, minimal illustration, flat design, simple shapes, vibrant colors, clean lines, tropical, vibrant",
    "generatedAt": "2025-11-30T05:12:37.615Z"
  },
  {
    "placeId": "ChIJm9eXpcuZ4jAROxvGhh77SsY",
    "title": "Petchaburi Soi 5 Food Street",
    "city": "bangkok",
    "imagePath": "/generated-images/bangkok_02_petchaburi-soi-5-food-street_v2.png",
    "location": {
      "lat": 13.755659,
      "lng": 100.5287756
    },
    "prompt": "A Hawker center serving delicious food, minimal illustration, flat design, simple shapes, vibrant colors, clean lines, playful, dynamic, energetic",
    "generatedAt": "2025-11-30T05:12:52.746Z"
  },
  {
    "placeId": "ChIJV83lo1Kf4jARJ5j8HB2Gnh8",
    "title": "Thai Street Food Place",
    "city": "bangkok",
    "imagePath": "/generated-images/bangkok_03_thai-street-food-place_v2.png",
    "location": {
      "lat": 13.7396701,
      "lng": 100.5613454
    },
    "prompt": "A Food court serving delicious food, minimal illustration, flat design, simple shapes, vibrant colors, clean lines, playful, dynamic, energetic",
    "generatedAt": "2025-11-30T05:13:07.709Z"
  },
  {
    "placeId": "ChIJSSTzpQCZ4jARTl-EkRb3Jlw",
    "title": "เจ๊เฮียง อาหารตามสั่ง เยาวราช Hiang A-la-carte Street Food",
    "city": "bangkok",
    "imagePath": "/generated-images/bangkok_04_hiang-a-la-carte-street-food_v2.png",
    "location": {
      "lat": 13.7404854,
      "lng": 100.5093666
    },
    "prompt": "A Restaurant serving delicious food, minimal illustration, flat design, simple shapes, vibrant colors, clean lines, modern, contemporary",
    "generatedAt": "2025-11-30T05:13:25.286Z"
  },
  {
    "placeId": "ChIJ1SsP3aif4jARyxax7z5P_4E",
    "title": "Food Street Soi 38",
    "city": "bangkok",
    "imagePath": "/generated-images/bangkok_05_food-street-soi-38_v2.png",
    "location": {
      "lat": 13.7235119,
      "lng": 100.5789226
    },
    "prompt": "A Restaurant serving delicious food, minimal illustration, flat design, simple shapes, vibrant colors, clean lines, modern, contemporary",
    "generatedAt": "2025-11-30T05:13:40.295Z"
  },
  {
    "placeId": "ChIJbYao6cif4jARF8mR5mjFcUI",
    "title": "Central World Square Street Food",
    "city": "bangkok",
    "imagePath": "/generated-images/bangkok_06_central-world-square-street-food_v2.png",
    "location": {
      "lat": 13.7471465,
      "lng": 100.5402351
    },
    "prompt": "A Thai restaurant serving delicious food, minimal illustration, flat design, simple shapes, vibrant colors, clean lines, tropical, vibrant",
    "generatedAt": "2025-11-30T05:13:55.701Z"
  },
  {
    "placeId": "ChIJoeqsy4Kf4jARol7aevww6OE",
    "title": "Convent Road Street Food",
    "city": "bangkok",
    "imagePath": "/generated-images/bangkok_07_convent-road-street-food_v2.png",
    "location": {
      "lat": 13.7276856,
      "lng": 100.5332289
    },
    "prompt": "A Hawker stall serving delicious food, minimal illustration, flat design, simple shapes, vibrant colors, clean lines, playful, dynamic, energetic",
    "generatedAt": "2025-11-30T05:14:11.175Z"
  },
  {
    "placeId": "ChIJf-5ObPue4jAROd8Q_RDSo3U",
    "title": "Sushi Juban Asok Branch",
    "city": "bangkok",
    "imagePath": "/generated-images/bangkok_08_sushi-juban-asok-branch_v2.png",
    "location": {
      "lat": 13.7400146,
      "lng": 100.5652823
    },
    "prompt": "A Sushi restaurant serving delicious food, minimal illustration, flat design, simple shapes, vibrant colors, clean lines, zen aesthetic, minimalist, clean composition",
    "generatedAt": "2025-11-30T05:14:26.200Z"
  },
  {
    "placeId": "ChIJhQpOHFSe4jAR-rDq_LXsjrk",
    "title": "SUSHI JUBAN Takumi",
    "city": "bangkok",
    "imagePath": "/generated-images/bangkok_09_sushi-juban-takumi_v2.png",
    "location": {
      "lat": 13.738292,
      "lng": 100.579515
    },
    "prompt": "A Sushi restaurant serving delicious food, minimal illustration, flat design, simple shapes, vibrant colors, clean lines, zen aesthetic, minimalist, clean composition",
    "generatedAt": "2025-11-30T05:14:41.674Z"
  },
  {
    "placeId": "ChIJIWE_TNee4jARNJ1T53PapGc",
    "title": "Zuma Bangkok",
    "city": "bangkok",
    "imagePath": "/generated-images/bangkok_10_zuma-bangkok_v2.png",
    "location": {
      "lat": 13.7396195,
      "lng": 100.5401105
    },
    "prompt": "A Japanese restaurant serving delicious food, minimal illustration, flat design, simple shapes, vibrant colors, clean lines, zen aesthetic, minimalist, clean composition",
    "generatedAt": "2025-11-30T05:14:58.453Z"
  },
  {
    "placeId": "ChIJdZ8wAwOf4jARWGdeSBVyS-M",
    "title": "Akira Back",
    "city": "bangkok",
    "imagePath": "/generated-images/bangkok_11_akira-back_v2.png",
    "location": {
      "lat": 13.7302993,
      "lng": 100.5654855
    },
    "prompt": "A Japanese restaurant serving delicious food, minimal illustration, flat design, simple shapes, vibrant colors, clean lines, zen aesthetic, minimalist, clean composition",
    "generatedAt": "2025-11-30T05:15:17.585Z"
  },
  {
    "placeId": "ChIJQSB4GI6ipBIR0owzy0TgXoY",
    "title": "Robata",
    "city": "barcelona",
    "imagePath": "/generated-images/barcelona_01_robata_v2.png",
    "location": {
      "lat": 41.390463,
      "lng": 2.1584258
    },
    "prompt": "Sushi rolls, seafood & Japanese beef dishes in a relaxed locale with modern decor & mellow lighting., minimal illustration, flat design, simple shapes, vibrant colors, clean lines, zen aesthetic, minimalist, clean composition",
    "generatedAt": "2025-11-30T05:15:32.279Z"
  },
  {
    "placeId": "ChIJybfY7_mipBIR9LU_PRzJdqI",
    "title": "Shunka",
    "city": "barcelona",
    "imagePath": "/generated-images/barcelona_02_shunka_v2.png",
    "location": {
      "lat": 41.3851944,
      "lng": 2.17515
    },
    "prompt": "A Japanese restaurant serving delicious food, minimal illustration, flat design, simple shapes, vibrant colors, clean lines, zen aesthetic, minimalist, clean composition",
    "generatedAt": "2025-11-30T05:15:45.971Z"
  },
  {
    "placeId": "ChIJk__0muqipBIRacIQTkTRgGU",
    "title": "Can Kenji",
    "city": "barcelona",
    "imagePath": "/generated-images/barcelona_03_can-kenji_v2.png",
    "location": {
      "lat": 41.4004302,
      "lng": 2.1663634
    },
    "prompt": "Classic bites like sushi, plus Western dishes with a Japanese twist, in a multihued dining room., minimal illustration, flat design, simple shapes, vibrant colors, clean lines, zen aesthetic, minimalist, clean composition",
    "generatedAt": "2025-11-30T05:16:00.616Z"
  },
  {
    "placeId": "ChIJW33aGMWjpBIRS4i9jUmbYKk",
    "title": "IKOYA Izakaya",
    "city": "barcelona",
    "imagePath": "/generated-images/barcelona_04_ikoya-izakaya_v2.png",
    "location": {
      "lat": 41.3865815,
      "lng": 2.1777497
    },
    "prompt": "A Japanese restaurant serving delicious food, minimal illustration, flat design, simple shapes, vibrant colors, clean lines, zen aesthetic, minimalist, clean composition",
    "generatedAt": "2025-11-30T05:16:16.731Z"
  },
  {
    "placeId": "ChIJiZ6Gso2ipBIR53l5H75CrJA",
    "title": "Restaurante FUTAMI",
    "city": "barcelona",
    "imagePath": "/generated-images/barcelona_05_restaurante-futami_v2.png",
    "location": {
      "lat": 41.3886111,
      "lng": 2.1616667
    },
    "prompt": "A Japanese restaurant serving delicious food, minimal illustration, flat design, simple shapes, vibrant colors, clean lines, zen aesthetic, minimalist, clean composition",
    "generatedAt": "2025-11-30T05:16:31.440Z"
  },
  {
    "placeId": "ChIJ6495uYujpBIRPEWqKQ3I8W0",
    "title": "Matsuri Sushi Bar - Restaurante Japonés",
    "city": "barcelona",
    "imagePath": "/generated-images/barcelona_06_matsuri-sushi-bar-restaurante-japons_v2.png",
    "location": {
      "lat": 41.3817578,
      "lng": 2.1787228
    },
    "prompt": "Sushi & sashimi, plus Thai curries & noodles, in a sleek establishment with an intimate vibe., minimal illustration, flat design, simple shapes, vibrant colors, clean lines, zen aesthetic, minimalist, clean composition",
    "generatedAt": "2025-11-30T05:16:46.783Z"
  },
  {
    "placeId": "ChIJVQuWCqKipBIRcOD2jN1RrpQ",
    "title": "Restaurante Hitsumabushi",
    "city": "barcelona",
    "imagePath": "/generated-images/barcelona_07_restaurante-hitsumabushi_v2.png",
    "location": {
      "lat": 41.4012484,
      "lng": 2.151082
    },
    "prompt": "A Japanese restaurant serving delicious food, minimal illustration, flat design, simple shapes, vibrant colors, clean lines, zen aesthetic, minimalist, clean composition",
    "generatedAt": "2025-11-30T05:17:00.800Z"
  },
  {
    "placeId": "ChIJTSzGu4WipBIRkznre9Zwis0",
    "title": "Disfrutar",
    "city": "barcelona",
    "imagePath": "/generated-images/barcelona_08_disfrutar_v2.png",
    "location": {
      "lat": 41.3877627,
      "lng": 2.153199
    },
    "prompt": "Experimental tasting menus emphasise Mediterranean seafood in an airy, upscale dining room., minimal illustration, flat design, simple shapes, vibrant colors, clean lines, elegant, sophisticated, refined",
    "generatedAt": "2025-11-30T05:17:19.384Z"
  },
  {
    "placeId": "ChIJ8TMSh46ipBIRVmVx_17vwLE",
    "title": "Cinc Sentits",
    "city": "barcelona",
    "imagePath": "/generated-images/barcelona_09_cinc-sentits_v2.png",
    "location": {
      "lat": 41.3783882,
      "lng": 2.1524171
    },
    "prompt": "Sleek space offering high-end tasting menus of contemporary Catalan cuisine with wine pairings., minimal illustration, flat design, simple shapes, vibrant colors, clean lines, elegant, sophisticated, refined",
    "generatedAt": "2025-11-30T05:17:32.240Z"
  },
  {
    "placeId": "ChIJm29JzI-ipBIRgONW28jE414",
    "title": "Osmosis",
    "city": "barcelona",
    "imagePath": "/generated-images/barcelona_10_osmosis_v2.png",
    "location": {
      "lat": 41.3903007,
      "lng": 2.157169
    },
    "prompt": "Stylish venue with moody decor, offering set lunches, modern European tasting menus & wine pairings., minimal illustration, flat design, simple shapes, vibrant colors, clean lines, modern, contemporary",
    "generatedAt": "2025-11-30T05:17:46.873Z"
  },
  {
    "placeId": "ChIJxXEkMe6ipBIRHtCUX_CpuCE",
    "title": "Caelis",
    "city": "barcelona",
    "imagePath": "/generated-images/barcelona_11_caelis_v2.png",
    "location": {
      "lat": 41.3870395,
      "lng": 2.1742657
    },
    "prompt": "Artfully plated gastronomical creations in a sleek space with an open kitchen & tasting menus., minimal illustration, flat design, simple shapes, vibrant colors, clean lines, elegant, sophisticated, refined",
    "generatedAt": "2025-11-30T05:18:02.274Z"
  },
  {
    "placeId": "ChIJFwtMgYABBDQRIdPKLifT-Gc",
    "title": "Street food",
    "city": "hongkong",
    "imagePath": "/generated-images/hongkong_01_street-food_v2.png",
    "location": {
      "lat": 22.2965209,
      "lng": 114.171551
    },
    "prompt": "A Restaurant serving delicious food, minimal illustration, flat design, simple shapes, vibrant colors, clean lines, modern, contemporary",
    "generatedAt": "2025-11-30T05:18:15.759Z"
  },
  {
    "placeId": "ChIJBxDbVPsBBDQR2MDn0IJ8eYE",
    "title": "Oh Wahh Street Food",
    "city": "hongkong",
    "imagePath": "/generated-images/hongkong_02_oh-wahh-street-food_v2.png",
    "location": {
      "lat": 22.2983486,
      "lng": 114.1741485
    },
    "prompt": "A Hong Kong style fast food restaurant serving delicious food, minimal illustration, flat design, simple shapes, vibrant colors, clean lines, modern, contemporary",
    "generatedAt": "2025-11-30T05:18:29.024Z"
  },
  {
    "placeId": "ChIJaxp6UEoBBDQRKg5wi6Me7yM",
    "title": "Street Food Central",
    "city": "hongkong",
    "imagePath": "/generated-images/hongkong_03_street-food-central_v2.png",
    "location": {
      "lat": 22.2839325,
      "lng": 114.1553613
    },
    "prompt": "A Food court serving delicious food, minimal illustration, flat design, simple shapes, vibrant colors, clean lines, playful, dynamic, energetic",
    "generatedAt": "2025-11-30T05:18:43.055Z"
  },
  {
    "placeId": "ChIJxVuvlXYBBDQRsjS0uztrz8M",
    "title": "Night street food market",
    "city": "hongkong",
    "imagePath": "/generated-images/hongkong_04_night-street-food-market_v2.png",
    "location": {
      "lat": 22.3108238,
      "lng": 114.1700011
    },
    "prompt": "A Chinese restaurant serving delicious food, minimal illustration, flat design, simple shapes, vibrant colors, clean lines, traditional, artistic",
    "generatedAt": "2025-11-30T05:18:59.883Z"
  },
  {
    "placeId": "ChIJc5ON4Xb_AzQR_dqjqgq0XkM",
    "title": "Bingaz Street Food",
    "city": "hongkong",
    "imagePath": "/generated-images/hongkong_05_bingaz-street-food_v2.png",
    "location": {
      "lat": 22.2851857,
      "lng": 114.1429503
    },
    "prompt": "A Restaurant serving delicious food, minimal illustration, flat design, simple shapes, vibrant colors, clean lines, modern, contemporary",
    "generatedAt": "2025-11-30T05:19:13.968Z"
  },
  {
    "placeId": "ChIJL5LYelwABDQR0Rey5f0FQN4",
    "title": "街食 Street Food",
    "city": "hongkong",
    "imagePath": "/generated-images/hongkong_06_street-food_v2.png",
    "location": {
      "lat": 22.2782859,
      "lng": 114.1729793
    },
    "prompt": "A Snack bar serving delicious food, minimal illustration, flat design, simple shapes, vibrant colors, clean lines, modern, contemporary",
    "generatedAt": "2025-11-30T05:19:28.038Z"
  },
  {
    "placeId": "ChIJ1eUMdFYABDQRWaUtGn67QWw",
    "title": "Fashion Walk Food Street",
    "city": "hongkong",
    "imagePath": "/generated-images/hongkong_07_fashion-walk-food-street_v2.png",
    "location": {
      "lat": 22.2823583,
      "lng": 114.1852532
    },
    "prompt": "A Restaurant serving delicious food, minimal illustration, flat design, simple shapes, vibrant colors, clean lines, modern, contemporary",
    "generatedAt": "2025-11-30T05:19:42.436Z"
  },
  {
    "placeId": "ChIJK_Ki6GQABDQR6msLLCzNE04",
    "title": "Amber",
    "city": "hongkong",
    "imagePath": "/generated-images/hongkong_08_amber_v2.png",
    "location": {
      "lat": 22.2809925,
      "lng": 114.1577835
    },
    "prompt": "Upscale hotel restaurant serving French cuisine in a stylish, contemporary dining room., minimal illustration, flat design, simple shapes, vibrant colors, clean lines, elegant, sophisticated, refined",
    "generatedAt": "2025-11-30T05:19:57.021Z"
  },
  {
    "placeId": "ChIJzbDWTWIABDQRfEbzv7wxi40",
    "title": "Caprice",
    "city": "hongkong",
    "imagePath": "/generated-images/hongkong_09_caprice_v2.png",
    "location": {
      "lat": 22.2864047,
      "lng": 114.1570968
    },
    "prompt": "Elegant French fine dining restaurant in an upscale hotel, with artisanal cheeses & vegetarian menu., minimal illustration, flat design, simple shapes, vibrant colors, clean lines, elegant, sophisticated, refined",
    "generatedAt": "2025-11-30T05:20:10.239Z"
  },
  {
    "placeId": "ChIJR8MwLmYABDQRkyi_aTFRBcM",
    "title": "Restaurant Petrus",
    "city": "hongkong",
    "imagePath": "/generated-images/hongkong_10_restaurant-petrus_v2.png",
    "location": {
      "lat": 22.2773632,
      "lng": 114.1644981
    },
    "prompt": "A French restaurant serving delicious food, minimal illustration, flat design, simple shapes, vibrant colors, clean lines, elegant, sophisticated, refined",
    "generatedAt": "2025-11-30T05:20:28.428Z"
  },
  {
    "placeId": "ChIJhcOtY3wABDQR39uGw41EIYM",
    "title": "The Chairman Restaurant",
    "city": "hongkong",
    "imagePath": "/generated-images/hongkong_11_the-chairman-restaurant_v2.png",
    "location": {
      "lat": 22.2848237,
      "lng": 114.1530091
    },
    "prompt": "Upmarket eatery serving classic Cantonese dishes with homemade & locally sourced ingredients., minimal illustration, flat design, simple shapes, vibrant colors, clean lines, elegant, sophisticated, refined",
    "generatedAt": "2025-11-30T05:20:42.227Z"
  },
  {
    "placeId": "ChIJqRRRk9UFdkgRCO7lejEKHnM",
    "title": "Hungama Indian Street Food",
    "city": "london",
    "imagePath": "/generated-images/london_01_hungama-indian-street-food_v2.png",
    "location": {
      "lat": 51.5103697,
      "lng": -0.128559
    },
    "prompt": "A Modern Indian restaurant serving delicious food, minimal illustration, flat design, simple shapes, vibrant colors, clean lines, warm colors, spices theme",
    "generatedAt": "2025-11-30T05:20:57.118Z"
  },
  {
    "placeId": "ChIJD4dBYbgFdkgRv99UblXvkYw",
    "title": "Seven Dials Market",
    "city": "london",
    "imagePath": "/generated-images/london_02_seven-dials-market_v2.png",
    "location": {
      "lat": 51.5139632,
      "lng": -0.1260421
    },
    "prompt": "Chic multi-level food court with dozens of micro-restaurants & bars, plus a bookshop & event space., minimal illustration, flat design, simple shapes, vibrant colors, clean lines, playful, dynamic, energetic",
    "generatedAt": "2025-11-30T05:21:11.172Z"
  },
  {
    "placeId": "ChIJp5w4kdYEdkgRzuu4EVm4VY4",
    "title": "Street Food Market - StreetFoodish",
    "city": "london",
    "imagePath": "/generated-images/london_03_street-food-market-streetfoodish_v2.png",
    "location": {
      "lat": 51.5089216,
      "lng": -0.1366165
    },
    "prompt": "A Food court serving delicious food, minimal illustration, flat design, simple shapes, vibrant colors, clean lines, playful, dynamic, energetic",
    "generatedAt": "2025-11-30T05:21:26.027Z"
  },
  {
    "placeId": "ChIJZ9jUVEEDdkgRN7k3RDL_908",
    "title": "Maltby Street Market",
    "city": "london",
    "imagePath": "/generated-images/london_04_maltby-street-market_v2.png",
    "location": {
      "lat": 51.4994579,
      "lng": -0.0759299
    },
    "prompt": "Outdoor weekend street market with food & drink vendors below 19th-century railway arches., minimal illustration, flat design, simple shapes, vibrant colors, clean lines, modern, contemporary",
    "generatedAt": "2025-11-30T05:21:41.802Z"
  },
  {
    "placeId": "ChIJD2bPdVcDdkgRuUSgnOXnKDE",
    "title": "Borough Market",
    "city": "london",
    "imagePath": "/generated-images/london_05_borough-market_v2.png",
    "location": {
      "lat": 51.5055826,
      "lng": -0.0904808
    },
    "prompt": "Huge market under the railway lines, for British-reared meat and artisanal baked and dairy goods., minimal illustration, flat design, simple shapes, vibrant colors, clean lines, modern, contemporary",
    "generatedAt": "2025-11-30T05:21:54.949Z"
  },
  {
    "placeId": "ChIJ05iDR6EEdkgR42XNGDj22yE",
    "title": "Mercato Metropolitano",
    "city": "london",
    "imagePath": "/generated-images/london_06_mercato-metropolitano_v2.png",
    "location": {
      "lat": 51.4984598,
      "lng": -0.0984096
    },
    "prompt": "Massive, airy market offering a range of street fare from Italian to Vietnamese, plus cocktails., minimal illustration, flat design, simple shapes, vibrant colors, clean lines, playful, dynamic, energetic",
    "generatedAt": "2025-11-30T05:22:09.395Z"
  },
  {
    "placeId": "ChIJkQ1Cka8cdkgRdcX1NRF15Ew",
    "title": "Falafel Street food",
    "city": "london",
    "imagePath": "/generated-images/london_07_falafel-street-food_v2.png",
    "location": {
      "lat": 51.5247372,
      "lng": -0.0834686
    },
    "prompt": "A Food court serving delicious food, minimal illustration, flat design, simple shapes, vibrant colors, clean lines, playful, dynamic, energetic",
    "generatedAt": "2025-11-30T05:22:23.674Z"
  },
  {
    "placeId": "ChIJW7PbgAYFdkgRKzZcm_oVjnM",
    "title": "SUSHISAMBA",
    "city": "london",
    "imagePath": "/generated-images/london_08_sushisamba_v2.png",
    "location": {
      "lat": 51.5123967,
      "lng": -0.1224727
    },
    "prompt": "Creative Japanese & Latin American sushi in contemporary surroundings, plus cocktails., minimal illustration, flat design, simple shapes, vibrant colors, clean lines, zen aesthetic, minimalist, clean composition",
    "generatedAt": "2025-11-30T05:22:37.493Z"
  },
  {
    "placeId": "ChIJVaCnTHwFdkgRUvbE7DqnZn4",
    "title": "The Sushi Co - Waterloo",
    "city": "london",
    "imagePath": "/generated-images/london_09_the-sushi-co-waterloo_v2.png",
    "location": {
      "lat": 51.5015256,
      "lng": -0.1114341
    },
    "prompt": "A Japanese restaurant serving delicious food, minimal illustration, flat design, simple shapes, vibrant colors, clean lines, zen aesthetic, minimalist, clean composition",
    "generatedAt": "2025-11-30T05:22:51.645Z"
  },
  {
    "placeId": "ChIJk0govMocdkgRMHymyiHS2BQ",
    "title": "SUSHINOEN",
    "city": "london",
    "imagePath": "/generated-images/london_10_sushinoen_v2.png",
    "location": {
      "lat": 51.5159921,
      "lng": -0.0691277
    },
    "prompt": "Stylish modern dining room with kimono-clad staff, serving classic and modern fusion dishes., minimal illustration, flat design, simple shapes, vibrant colors, clean lines, zen aesthetic, minimalist, clean composition",
    "generatedAt": "2025-11-30T05:23:06.144Z"
  },
  {
    "placeId": "ChIJf8nquTcFdkgRFtVR_nVal6M",
    "title": "The Sushi Co - Kensington",
    "city": "london",
    "imagePath": "/generated-images/london_11_the-sushi-co-kensington_v2.png",
    "location": {
      "lat": 51.4930905,
      "lng": -0.1765058
    },
    "prompt": "A Sushi restaurant serving delicious food, minimal illustration, flat design, simple shapes, vibrant colors, clean lines, zen aesthetic, minimalist, clean composition",
    "generatedAt": "2025-11-30T05:23:21.533Z"
  },
  {
    "placeId": "ChIJbS8EZf8B0oURwwD8B0MpqK0",
    "title": "Quintonil",
    "city": "mexicocity",
    "imagePath": "/generated-images/mexicocity_01_quintonil_v2.png",
    "location": {
      "lat": 19.4308408,
      "lng": -99.1917115
    },
    "prompt": "Noted restaurant with a tasting menu offering ambitious meat & seafood dishes, plus wine pairing., minimal illustration, flat design, simple shapes, vibrant colors, clean lines, elegant, sophisticated, refined",
    "generatedAt": "2025-11-30T05:23:40.311Z"
  },
  {
    "placeId": "ChIJWZ2zdav40YURFvsU_rU3uaE",
    "title": "Pujol",
    "city": "mexicocity",
    "imagePath": "/generated-images/mexicocity_02_pujol_v2.png",
    "location": {
      "lat": 19.4323763,
      "lng": -99.1948132
    },
    "prompt": "A Mexican restaurant serving delicious food, minimal illustration, flat design, simple shapes, vibrant colors, clean lines, bold, colorful, festive",
    "generatedAt": "2025-11-30T05:23:55.552Z"
  },
  {
    "placeId": "ChIJb2bGJKv40YURSRf5qxN_yoA",
    "title": "Raíz",
    "city": "mexicocity",
    "imagePath": "/generated-images/mexicocity_03_raz_v2.png",
    "location": {
      "lat": 19.4320246,
      "lng": -99.1865747
    },
    "prompt": "A Fine dining restaurant serving delicious food, minimal illustration, flat design, simple shapes, vibrant colors, clean lines, elegant, sophisticated, refined",
    "generatedAt": "2025-11-30T05:24:12.122Z"
  },
  {
    "placeId": "ChIJrwqHxQEC0oURQc3yfAC7XdI",
    "title": "Rosa Negra",
    "city": "mexicocity",
    "imagePath": "/generated-images/mexicocity_04_rosa-negra_v2.png",
    "location": {
      "lat": 19.4313687,
      "lng": -99.1932413
    },
    "prompt": "A Latin American restaurant serving delicious food, minimal illustration, flat design, simple shapes, vibrant colors, clean lines, elegant, sophisticated, refined",
    "generatedAt": "2025-11-30T05:24:28.033Z"
  },
  {
    "placeId": "ChIJT4EmU7D90YURgBm8QimOZOQ",
    "title": "Taquería en la calle (street-food)",
    "city": "mexicocity",
    "imagePath": "/generated-images/mexicocity_05_taquera-en-la-calle-street-food_v2.png",
    "location": {
      "lat": 19.4174918,
      "lng": -99.0779999
    },
    "prompt": "A Mexican restaurant serving delicious food, minimal illustration, flat design, simple shapes, vibrant colors, clean lines, bold, colorful, festive",
    "generatedAt": "2025-11-30T05:24:42.684Z"
  },
  {
    "placeId": "ChIJl2tJKAAC0oURzWeACONi9Tg",
    "title": "Tori Tori Polanco",
    "city": "mexicocity",
    "imagePath": "/generated-images/mexicocity_06_tori-tori-polanco_v2.png",
    "location": {
      "lat": 19.4304401,
      "lng": -99.1919388
    },
    "prompt": "A Japanese restaurant serving delicious food, minimal illustration, flat design, simple shapes, vibrant colors, clean lines, zen aesthetic, minimalist, clean composition",
    "generatedAt": "2025-11-30T05:24:55.224Z"
  },
  {
    "placeId": "ChIJUcS1TAr50YURuwZKxZdg-ak",
    "title": "Ryoshi",
    "city": "mexicocity",
    "imagePath": "/generated-images/mexicocity_07_ryoshi_v2.png",
    "location": {
      "lat": 19.4317117,
      "lng": -99.1862479
    },
    "prompt": "Upscale destination cooking Japanese seafood, meat & veggie dishes, plus a sushi & sashimi bar., minimal illustration, flat design, simple shapes, vibrant colors, clean lines, zen aesthetic, minimalist, clean composition",
    "generatedAt": "2025-11-30T05:25:10.307Z"
  },
  {
    "placeId": "ChIJN2VNtnP_0YURs-NRYpIzOZM",
    "title": "Suntory Del Valle",
    "city": "mexicocity",
    "imagePath": "/generated-images/mexicocity_08_suntory-del-valle_v2.png",
    "location": {
      "lat": 19.3926616,
      "lng": -99.171867
    },
    "prompt": "A Japanese restaurant serving delicious food, minimal illustration, flat design, simple shapes, vibrant colors, clean lines, zen aesthetic, minimalist, clean composition",
    "generatedAt": "2025-11-30T05:25:23.550Z"
  },
  {
    "placeId": "ChIJe64RFXH_0YUR6boSlh5TJN0",
    "title": "Nagaoka",
    "city": "mexicocity",
    "imagePath": "/generated-images/mexicocity_09_nagaoka_v2.png",
    "location": {
      "lat": 19.3915588,
      "lng": -99.1747521
    },
    "prompt": "Family-run stalwart serving up sushi, sashimi & sukiyaki with an emphasis on seasonal ingredients., minimal illustration, flat design, simple shapes, vibrant colors, clean lines, zen aesthetic, minimalist, clean composition",
    "generatedAt": "2025-11-30T05:25:39.021Z"
  },
  {
    "placeId": "ChIJ5Q5GDwIC0oURUJCTYs2ddRc",
    "title": "Básico",
    "city": "mexicocity",
    "imagePath": "/generated-images/mexicocity_10_bsico_v2.png",
    "location": {
      "lat": 19.4304299,
      "lng": -99.197283
    },
    "prompt": "A Health food restaurant serving delicious food, minimal illustration, flat design, simple shapes, vibrant colors, clean lines, fresh, organic feel, natural",
    "generatedAt": "2025-11-30T05:25:52.874Z"
  },
  {
    "placeId": "ChIJdRpmPRED0oURjYadKdDH3bM",
    "title": "Goy's Bistró Plant-Based Nuevo Polanco",
    "city": "mexicocity",
    "imagePath": "/generated-images/mexicocity_11_goys-bistr-plant-based-nuevo-polanco_v2.png",
    "location": {
      "lat": 19.4392575,
      "lng": -99.1784863
    },
    "prompt": "A Vegan restaurant serving delicious food, minimal illustration, flat design, simple shapes, vibrant colors, clean lines, fresh, organic feel, natural",
    "generatedAt": "2025-11-30T05:26:06.122Z"
  },
  {
    "placeId": "ChIJOW5d0SLR5zsRdOb864OWRxg",
    "title": "Street Food stalls",
    "city": "mumbai",
    "imagePath": "/generated-images/mumbai_01_street-food-stalls_v2.png",
    "location": {
      "lat": 18.9284122,
      "lng": 72.831578
    },
    "prompt": "A Food court serving delicious food, minimal illustration, flat design, simple shapes, vibrant colors, clean lines, playful, dynamic, energetic",
    "generatedAt": "2025-11-30T05:26:22.080Z"
  },
  {
    "placeId": "ChIJsYFP93jR5zsRcKWa8kY7-Ig",
    "title": "Khau galli Street Food",
    "city": "mumbai",
    "imagePath": "/generated-images/mumbai_02_khau-galli-street-food_v2.png",
    "location": {
      "lat": 18.9341176,
      "lng": 72.8354901
    },
    "prompt": "A Fast food restaurant serving delicious food, minimal illustration, flat design, simple shapes, vibrant colors, clean lines, modern, contemporary",
    "generatedAt": "2025-11-30T05:26:37.448Z"
  },
  {
    "placeId": "ChIJL0EwAI_O5zsRKTWGclEoGgA",
    "title": "Street Food Of Mumbai",
    "city": "mumbai",
    "imagePath": "/generated-images/mumbai_03_street-food-of-mumbai_v2.png",
    "location": {
      "lat": 18.9960269,
      "lng": 72.8189992
    },
    "prompt": "A Restaurant serving delicious food, minimal illustration, flat design, simple shapes, vibrant colors, clean lines, modern, contemporary",
    "generatedAt": "2025-11-30T05:26:51.491Z"
  },
  {
    "placeId": "ChIJ_8z1h4LJ5zsRXssl018zApA",
    "title": "Radha Krishna Sweets & Street Food",
    "city": "mumbai",
    "imagePath": "/generated-images/mumbai_04_radha-krishna-sweets-street-food_v2.png",
    "location": {
      "lat": 19.0806149,
      "lng": 72.8430336
    },
    "prompt": "A Fast food restaurant serving delicious food, minimal illustration, flat design, simple shapes, vibrant colors, clean lines, modern, contemporary",
    "generatedAt": "2025-11-30T05:27:05.836Z"
  },
  {
    "placeId": "ChIJE9l-ryPO5zsRRrqjIsy9fBw",
    "title": "Mohanbhai Pudlawala",
    "city": "mumbai",
    "imagePath": "/generated-images/mumbai_05_mohanbhai-pudlawala_v2.png",
    "location": {
      "lat": 18.9511543,
      "lng": 72.8314887
    },
    "prompt": "A Gujarati restaurant serving delicious food, minimal illustration, flat design, simple shapes, vibrant colors, clean lines, modern, contemporary",
    "generatedAt": "2025-11-30T05:27:20.105Z"
  },
  {
    "placeId": "ChIJOZdnQwfR5zsRBarhOYp355c",
    "title": "Food Street CSMT",
    "city": "mumbai",
    "imagePath": "/generated-images/mumbai_06_food-street-csmt_v2.png",
    "location": {
      "lat": 18.9398612,
      "lng": 72.8339681
    },
    "prompt": "A Restaurant serving delicious food, minimal illustration, flat design, simple shapes, vibrant colors, clean lines, modern, contemporary",
    "generatedAt": "2025-11-30T05:27:39.035Z"
  },
  {
    "placeId": "ChIJ5TOqIwLJ5zsRNyF9uOKWAec",
    "title": "Street Food",
    "city": "mumbai",
    "imagePath": "/generated-images/mumbai_07_street-food_v2.png",
    "location": {
      "lat": 19.0774839,
      "lng": 72.8652747
    },
    "prompt": "A Food court serving delicious food, minimal illustration, flat design, simple shapes, vibrant colors, clean lines, playful, dynamic, energetic",
    "generatedAt": "2025-11-30T05:27:54.554Z"
  },
  {
    "placeId": "ChIJ5fCLBsPR5zsRTd3EZe_to9U",
    "title": "Wasabi by Morimoto",
    "city": "mumbai",
    "imagePath": "/generated-images/mumbai_08_wasabi-by-morimoto_v2.png",
    "location": {
      "lat": 18.9225215,
      "lng": 72.8332292
    },
    "prompt": "This upscale contemporary Japanese dining room in a hotel serves classics, sushi and rare sakes., minimal illustration, flat design, simple shapes, vibrant colors, clean lines, zen aesthetic, minimalist, clean composition",
    "generatedAt": "2025-11-30T05:28:07.577Z"
  },
  {
    "placeId": "ChIJ2-XDY_LJ5zsRqZp-HET_oCE",
    "title": "Izumi Bandra",
    "city": "mumbai",
    "imagePath": "/generated-images/mumbai_09_izumi-bandra_v2.png",
    "location": {
      "lat": 19.0642831,
      "lng": 72.8329865
    },
    "prompt": "A Authentic Japanese restaurant serving delicious food, minimal illustration, flat design, simple shapes, vibrant colors, clean lines, zen aesthetic, minimalist, clean composition",
    "generatedAt": "2025-11-30T05:28:21.260Z"
  },
  {
    "placeId": "ChIJLV1aZ1PJ5zsRBMYvITR05Zw",
    "title": "Kuuraku Bandra West Mumbai",
    "city": "mumbai",
    "imagePath": "/generated-images/mumbai_10_kuuraku-bandra-west-mumbai_v2.png",
    "location": {
      "lat": 19.0609121,
      "lng": 72.8370265
    },
    "prompt": "A Japanese restaurant serving delicious food, minimal illustration, flat design, simple shapes, vibrant colors, clean lines, zen aesthetic, minimalist, clean composition",
    "generatedAt": "2025-11-30T05:28:36.626Z"
  },
  {
    "placeId": "ChIJawF5YRHJ5zsRkD1WYndszyc",
    "title": "Kofuku (Cloud Kitchen)",
    "city": "mumbai",
    "imagePath": "/generated-images/mumbai_11_kofuku-cloud-kitchen_v2.png",
    "location": {
      "lat": 19.0779139,
      "lng": 72.82946
    },
    "prompt": "Traditional Japanese dishes and sushi are served at this dining room decorated in East Asian style., minimal illustration, flat design, simple shapes, vibrant colors, clean lines, zen aesthetic, minimalist, clean composition",
    "generatedAt": "2025-11-30T05:28:51.411Z"
  },
  {
    "placeId": "ChIJzXZ-XGpbwokRz2YaBRnvBzU",
    "title": "Mott Street Eatery",
    "city": "newyork",
    "imagePath": "/generated-images/newyork_01_mott-street-eatery_v2.png",
    "location": {
      "lat": 40.7171726,
      "lng": -73.9972861
    },
    "prompt": "A Food court serving delicious food, minimal illustration, flat design, simple shapes, vibrant colors, clean lines, playful, dynamic, energetic",
    "generatedAt": "2025-11-30T05:29:04.868Z"
  },
  {
    "placeId": "ChIJJQAPYXlpwokRgvICh9Dog-o",
    "title": "Street Bites NYC",
    "city": "newyork",
    "imagePath": "/generated-images/newyork_02_street-bites-nyc_v2.png",
    "location": {
      "lat": 40.7594274,
      "lng": -73.9822296
    },
    "prompt": "A Halal restaurant serving delicious food, minimal illustration, flat design, simple shapes, vibrant colors, clean lines, modern, contemporary",
    "generatedAt": "2025-11-30T05:29:19.037Z"
  },
  {
    "placeId": "ChIJtY1bZAD3wokR7QS5gAkPurM",
    "title": "K-Street Food/Sushi King",
    "city": "newyork",
    "imagePath": "/generated-images/newyork_03_k-street-foodsushi-king_v2.png",
    "location": {
      "lat": 40.7976513,
      "lng": -73.9484526
    },
    "prompt": "A Asian fusion restaurant serving delicious food, minimal illustration, flat design, simple shapes, vibrant colors, clean lines, modern, contemporary",
    "generatedAt": "2025-11-30T05:29:33.164Z"
  },
  {
    "placeId": "ChIJV4FxFgD3wokRSf50lKA8Bz8",
    "title": "K-street food",
    "city": "newyork",
    "imagePath": "/generated-images/newyork_04_k-street-food_v2.png",
    "location": {
      "lat": 40.7919918,
      "lng": -73.941226
    },
    "prompt": "A Korean restaurant serving delicious food, minimal illustration, flat design, simple shapes, vibrant colors, clean lines, modern, contemporary",
    "generatedAt": "2025-11-30T05:29:52.145Z"
  },
  {
    "placeId": "ChIJheD4kfxYwokR-5X6NNDNYnk",
    "title": "Uncle Gussy's",
    "city": "newyork",
    "imagePath": "/generated-images/newyork_05_uncle-gussys_v2.png",
    "location": {
      "lat": 40.7575718,
      "lng": -73.9733483
    },
    "prompt": "Greek food truck specializing in tzatziki sauce serves salad, platters, cheesesteak, pita & burgers., minimal illustration, flat design, simple shapes, vibrant colors, clean lines, modern, contemporary",
    "generatedAt": "2025-11-30T05:30:08.480Z"
  },
  {
    "placeId": "ChIJwZCWumNZwokRA_PDwYfl0No",
    "title": "Street food vendor",
    "city": "newyork",
    "imagePath": "/generated-images/newyork_06_street-food-vendor_v2.png",
    "location": {
      "lat": 40.7845476,
      "lng": -73.9798433
    },
    "prompt": "A Restaurant serving delicious food, minimal illustration, flat design, simple shapes, vibrant colors, clean lines, modern, contemporary",
    "generatedAt": "2025-11-30T05:30:23.195Z"
  },
  {
    "placeId": "ChIJCar0f49ZwokR6ozLV-dHNTE",
    "title": "Katz's Delicatessen",
    "city": "newyork",
    "imagePath": "/generated-images/newyork_07_katzs-delicatessen_v2.png",
    "location": {
      "lat": 40.722233,
      "lng": -73.987429
    },
    "prompt": "No-frills deli with theatrically cranky service serving mile-high sandwiches since 1888., minimal illustration, flat design, simple shapes, vibrant colors, clean lines, modern, contemporary",
    "generatedAt": "2025-11-30T05:30:37.546Z"
  },
  {
    "placeId": "ChIJ09ZGju5YwokRXOcNC23JRwk",
    "title": "Daniel",
    "city": "newyork",
    "imagePath": "/generated-images/newyork_08_daniel_v2.png",
    "location": {
      "lat": 40.7668083,
      "lng": -73.9675769
    },
    "prompt": "Daniel Boulud's renowned restaurant with refined European dishes & an acclaimed wine selection in elegant surrounds., minimal illustration, flat design, simple shapes, vibrant colors, clean lines, elegant, sophisticated, refined",
    "generatedAt": "2025-11-30T05:30:49.867Z"
  },
  {
    "placeId": "ChIJp3PsL_ZYwokRZYqs_40RJF4",
    "title": "Per Se",
    "city": "newyork",
    "imagePath": "/generated-images/newyork_09_per-se_v2.png",
    "location": {
      "lat": 40.7682178,
      "lng": -73.9828988
    },
    "prompt": "Chef Thomas Keller's New American restaurant offers luxe fixed-price menus, with Central Park views., minimal illustration, flat design, simple shapes, vibrant colors, clean lines, elegant, sophisticated, refined",
    "generatedAt": "2025-11-30T05:31:04.734Z"
  },
  {
    "placeId": "ChIJV7QQ6kdZwokRax4615zpSGU",
    "title": "Le Bernardin",
    "city": "newyork",
    "imagePath": "/generated-images/newyork_10_le-bernardin_v2.png",
    "location": {
      "lat": 40.7614218,
      "lng": -73.9817558
    },
    "prompt": "Elite French restaurant offers chef Eric Ripert's refined seafood, expert service & luxurious decor., minimal illustration, flat design, simple shapes, vibrant colors, clean lines, elegant, sophisticated, refined",
    "generatedAt": "2025-11-30T05:31:18.444Z"
  },
  {
    "placeId": "ChIJMW-gxPtYwokRzDlnsRgq9rA",
    "title": "The Modern",
    "city": "newyork",
    "imagePath": "/generated-images/newyork_11_the-modern_v2.png",
    "location": {
      "lat": 40.761081,
      "lng": -73.976753
    },
    "prompt": "French/New American fare in a modernist space with garden views at the Museum of Modern Art., minimal illustration, flat design, simple shapes, vibrant colors, clean lines, modern, contemporary",
    "generatedAt": "2025-11-30T05:31:31.902Z"
  },
  {
    "placeId": "ChIJnywNMVv_0YURVuuTE-_GX4Q",
    "title": "Ling Ling by Hakkasan",
    "city": "Cuauhtémoc, Mexico City",
    "imagePath": "/generated-images/ChIJnywNMVv_0YURVuuTE-_GX4Q_v2.png",
    "location": {
      "lat": 19.4240425,
      "lng": -99.1757592
    },
    "prompt": "Asian-inspired cuisine, sushi & cocktails in a sophisticated skyscraper setting with a terrace., minimal illustration, flat design, simple shapes, vibrant colors, clean lines, modern, contemporary",
    "generatedAt": "2025-11-30T05:31:44.884Z"
  },
  {
    "placeId": "ChIJmVxSVGP50YURnTjlP1025aU",
    "title": "Casa Prime Hilton Centro Histórico",
    "city": "Cuauhtémoc, Mexico City",
    "imagePath": "/generated-images/ChIJmVxSVGP50YURnTjlP1025aU_v2.png",
    "location": {
      "lat": 19.4348687,
      "lng": -99.1464088
    },
    "prompt": "A Restaurant serving delicious food, minimal illustration, flat design, simple shapes, vibrant colors, clean lines, modern, contemporary",
    "generatedAt": "2025-11-30T05:31:58.684Z"
  },
  {
    "placeId": "ChIJZ0xZYzT_0YURGspQnHeDisw",
    "title": "The Capital Grille",
    "city": "Cuauhtémoc, Mexico City",
    "imagePath": "/generated-images/ChIJZ0xZYzT_0YURGspQnHeDisw_v2.png",
    "location": {
      "lat": 19.4283341,
      "lng": -99.1628266
    },
    "prompt": "A Steak house serving delicious food, minimal illustration, flat design, simple shapes, vibrant colors, clean lines, modern, contemporary",
    "generatedAt": "2025-11-30T05:32:11.202Z"
  },
  {
    "placeId": "ChIJ3ZJlBjX_0YURwpkIBV6-LvM",
    "title": "Street Food. Carnitas",
    "city": "Cuauhtémoc, Mexico City",
    "imagePath": "/generated-images/ChIJ3ZJlBjX_0YURwpkIBV6-LvM_v2.png",
    "location": {
      "lat": 19.4291881,
      "lng": -99.1657003
    },
    "prompt": "A Restaurant serving delicious food, minimal illustration, flat design, simple shapes, vibrant colors, clean lines, modern, contemporary",
    "generatedAt": "2025-11-30T05:32:24.062Z"
  },
  {
    "placeId": "ChIJO58Te0n_0YURSPlf8bujU0Y",
    "title": "Street Tacos",
    "city": "Cuauhtémoc, Mexico City",
    "imagePath": "/generated-images/ChIJO58Te0n_0YURSPlf8bujU0Y_v2.png",
    "location": {
      "lat": 19.4148572,
      "lng": -99.178309
    },
    "prompt": "A Mexican restaurant serving delicious food, minimal illustration, flat design, simple shapes, vibrant colors, clean lines, bold, colorful, festive",
    "generatedAt": "2025-11-30T05:32:39.689Z"
  },
  {
    "placeId": "ChIJAeuc20X50YURmbaLaj44lKE",
    "title": "BiGOS street tacos",
    "city": "Cuauhtémoc, Mexico City",
    "imagePath": "/generated-images/ChIJAeuc20X50YURmbaLaj44lKE_v2.png",
    "location": {
      "lat": 19.4333452,
      "lng": -99.1501928
    },
    "prompt": "A Taco restaurant serving delicious food, minimal illustration, flat design, simple shapes, vibrant colors, clean lines, bold, colorful, festive",
    "generatedAt": "2025-11-30T05:32:53.094Z"
  },
  {
    "placeId": "ChIJNzf4fbn50YUR3NsIAAMCxW0",
    "title": "Cà Phê Vietnam Street Food",
    "city": "Cuauhtémoc, Mexico City",
    "imagePath": "/generated-images/ChIJNzf4fbn50YUR3NsIAAMCxW0_v2.png",
    "location": {
      "lat": 19.4360429,
      "lng": -99.150815
    },
    "prompt": "A Restaurant serving delicious food, minimal illustration, flat design, simple shapes, vibrant colors, clean lines, fresh, organic feel, natural",
    "generatedAt": "2025-11-30T05:33:06.337Z"
  },
  {
    "placeId": "ChIJtc3HnSr50YURI6AdcbUW5x0",
    "title": "Tacos- Street Food Vendor",
    "city": "Cuauhtémoc, Mexico City",
    "imagePath": "/generated-images/ChIJtc3HnSr50YURI6AdcbUW5x0_v2.png",
    "location": {
      "lat": 19.4349873,
      "lng": -99.147499
    },
    "prompt": "A Taco restaurant serving delicious food, minimal illustration, flat design, simple shapes, vibrant colors, clean lines, bold, colorful, festive",
    "generatedAt": "2025-11-30T05:33:28.619Z"
  },
  {
    "placeId": "ChIJZ-dNcTr_0YURvT79FclhNi0",
    "title": "Birria Estilo Jalisco - Food Stand",
    "city": "Cuauhtémoc, Mexico City",
    "imagePath": "/generated-images/ChIJZ-dNcTr_0YURvT79FclhNi0_v2.png",
    "location": {
      "lat": 19.4198893,
      "lng": -99.1605107
    },
    "prompt": "A Mexican restaurant serving delicious food, minimal illustration, flat design, simple shapes, vibrant colors, clean lines, bold, colorful, festive",
    "generatedAt": "2025-11-30T05:33:43.004Z"
  },
  {
    "placeId": "ChIJrxn-r0f_0YURDXlBWYaD_24",
    "title": "Kura",
    "city": "Cuauhtémoc, Mexico City",
    "imagePath": "/generated-images/ChIJrxn-r0f_0YURDXlBWYaD_24_v2.png",
    "location": {
      "lat": 19.4175392,
      "lng": -99.1698588
    },
    "prompt": "Laid-back spot serving Japanese dishes such as sushi, ramen & oden, plus seafood, Wagyu beef & beer., minimal illustration, flat design, simple shapes, vibrant colors, clean lines, zen aesthetic, minimalist, clean composition",
    "generatedAt": "2025-11-30T05:33:57.851Z"
  },
  {
    "placeId": "ChIJjUpcMyX_0YURKD01V_kJOhM",
    "title": "Mog Bistro",
    "city": "Cuauhtémoc, Mexico City",
    "imagePath": "/generated-images/ChIJjUpcMyX_0YURKD01V_kJOhM_v2.png",
    "location": {
      "lat": 19.4162998,
      "lng": -99.155061
    },
    "prompt": "Hip, industrial dining room & terrace serving Asian-style meat skewers, dumplings, sushi & noodles., minimal illustration, flat design, simple shapes, vibrant colors, clean lines, zen aesthetic, minimalist, clean composition",
    "generatedAt": "2025-11-30T05:34:12.147Z"
  },
  {
    "placeId": "ChIJlVvipTFu5kcR6VwB1PiwKv8",
    "title": "Pur' - Jean-François Rouquette",
    "city": "paris",
    "imagePath": "/generated-images/paris_01_pur-jean-franois-rouquette_v2.png",
    "location": {
      "lat": 48.8689056,
      "lng": 2.3301781
    },
    "prompt": "Upscale restaurant in the Park Hyatt Hotel preparing imaginative local dishes from a tasting menu., minimal illustration, flat design, simple shapes, vibrant colors, clean lines, elegant, sophisticated, refined",
    "generatedAt": "2025-11-30T05:34:26.541Z"
  },
  {
    "placeId": "ChIJ64SRn-xv5kcRH7AlSsBFASQ",
    "title": "Restaurant Guy Savoy",
    "city": "paris",
    "imagePath": "/generated-images/paris_02_restaurant-guy-savoy_v2.png",
    "location": {
      "lat": 48.8567046,
      "lng": 2.3391491
    },
    "prompt": "Sophisticated restaurant offering high-concept a la carte & fixed-price menus, plus wine pairings., minimal illustration, flat design, simple shapes, vibrant colors, clean lines, elegant, sophisticated, refined",
    "generatedAt": "2025-11-30T05:34:40.602Z"
  },
  {
    "placeId": "ChIJqTQzIehv5kcRaF3hD1SzX5A",
    "title": "Le Cinq",
    "city": "paris",
    "imagePath": "/generated-images/paris_03_le-cinq_v2.png",
    "location": {
      "lat": 48.868849,
      "lng": 2.300683
    },
    "prompt": "Creatively plated French dishes in a richly decorated, Regency-style dining room with a wine cellar., minimal illustration, flat design, simple shapes, vibrant colors, clean lines, elegant, sophisticated, refined",
    "generatedAt": "2025-11-30T05:34:57.325Z"
  },
  {
    "placeId": "ChIJVeUHqupv5kcRDHPinmB3LtU",
    "title": "Epicure",
    "city": "paris",
    "imagePath": "/generated-images/paris_04_epicure_v2.png",
    "location": {
      "lat": 48.8717373,
      "lng": 2.3148528
    },
    "prompt": "Upscale hotel restaurant overlooking a courtyard garden & specializing in French fine dining & wine., minimal illustration, flat design, simple shapes, vibrant colors, clean lines, elegant, sophisticated, refined",
    "generatedAt": "2025-11-30T05:35:11.421Z"
  },
  {
    "placeId": "ChIJR4kFR0xv5kcR-x6duNRh3uE",
    "title": "Sphère",
    "city": "paris",
    "imagePath": "/generated-images/paris_05_sphre_v2.png",
    "location": {
      "lat": 48.8742665,
      "lng": 2.3169387
    },
    "prompt": "A French restaurant serving delicious food, minimal illustration, flat design, simple shapes, vibrant colors, clean lines, elegant, sophisticated, refined",
    "generatedAt": "2025-11-30T05:35:25.921Z"
  },
  {
    "placeId": "ChIJQ-V5FQBy5kcRRd_d6D3GQGg",
    "title": "Restaurant H",
    "city": "paris",
    "imagePath": "/generated-images/paris_06_restaurant-h_v2.png",
    "location": {
      "lat": 48.8545233,
      "lng": 2.368052
    },
    "prompt": "Sophisticated choice with a set menu spotlighting reimagined local cuisine paired with wine., minimal illustration, flat design, simple shapes, vibrant colors, clean lines, elegant, sophisticated, refined",
    "generatedAt": "2025-11-30T05:35:40.745Z"
  },
  {
    "placeId": "ChIJ3ciEyNhx5kcRPVo1NKwoM2k",
    "title": "Boutary",
    "city": "paris",
    "imagePath": "/generated-images/paris_07_boutary_v2.png",
    "location": {
      "lat": 48.8549894,
      "lng": 2.3380174
    },
    "prompt": "Intimate contemporary dining room offering sophisticated tasting menus, caviar & champagne., minimal illustration, flat design, simple shapes, vibrant colors, clean lines, elegant, sophisticated, refined",
    "generatedAt": "2025-11-30T05:35:58.826Z"
  },
  {
    "placeId": "ChIJ9Z6nGDtu5kcRgc34rnb__eA",
    "title": "Sushi-B",
    "city": "paris",
    "imagePath": "/generated-images/paris_08_sushi-b_v2.png",
    "location": {
      "lat": 48.8676992,
      "lng": 2.337377
    },
    "prompt": "Intimate, minimalist restaurant for elegantly presented sushi & omakase chef's choice menus., minimal illustration, flat design, simple shapes, vibrant colors, clean lines, zen aesthetic, minimalist, clean composition",
    "generatedAt": "2025-11-30T05:36:16.431Z"
  },
  {
    "placeId": "ChIJoZGnsQhv5kcRuU-gAvV-dyA",
    "title": "Kuma",
    "city": "paris",
    "imagePath": "/generated-images/paris_09_kuma_v2.png",
    "location": {
      "lat": 48.8566298,
      "lng": 2.3583762
    },
    "prompt": "A Japanese restaurant serving delicious food, minimal illustration, flat design, simple shapes, vibrant colors, clean lines, zen aesthetic, minimalist, clean composition",
    "generatedAt": "2025-11-30T05:36:33.739Z"
  },
  {
    "placeId": "ChIJEZfXAcVx5kcRHQGcF21SLyw",
    "title": "Kanpai",
    "city": "paris",
    "imagePath": "/generated-images/paris_10_kanpai_v2.png",
    "location": {
      "lat": 48.8428953,
      "lng": 2.3300336
    },
    "prompt": "Japanese classics are served in this understated, intimate restaurant with a terrace., minimal illustration, flat design, simple shapes, vibrant colors, clean lines, zen aesthetic, minimalist, clean composition",
    "generatedAt": "2025-11-30T05:36:49.846Z"
  },
  {
    "placeId": "ChIJieMCDTpu5kcRkW5IXfriXEk",
    "title": "Restaurant japonais La Marina",
    "city": "paris",
    "imagePath": "/generated-images/paris_11_restaurant-japonais-la-marina_v2.png",
    "location": {
      "lat": 48.8704377,
      "lng": 2.3349044
    },
    "prompt": "Creative sushi rolls, noodle soups & grilled fish & meat skewers, dished up in a no-frills room., minimal illustration, flat design, simple shapes, vibrant colors, clean lines, zen aesthetic, minimalist, clean composition",
    "generatedAt": "2025-11-30T05:37:02.617Z"
  },
  {
    "placeId": "ChIJER0J1Cgb2jERZy0VE0BS8Nc",
    "title": "AMGD Superfood Restaurant & AMGD Healthy Food Delivery",
    "city": "singapore",
    "imagePath": "/generated-images/singapore_01_amgd-superfood-restaurant-amgd-healthy-food-delive_v2.png",
    "location": {
      "lat": 1.2864428,
      "lng": 103.8145137
    },
    "prompt": "A Restaurant serving delicious food, minimal illustration, flat design, simple shapes, vibrant colors, clean lines, modern, contemporary",
    "generatedAt": "2025-11-30T05:37:17.612Z"
  },
  {
    "placeId": "ChIJ5yMyKwwZ2jERGVM_791Jn-o",
    "title": "Grain Traders",
    "city": "singapore",
    "imagePath": "/generated-images/singapore_02_grain-traders_v2.png",
    "location": {
      "lat": 1.2821756,
      "lng": 103.8499191
    },
    "prompt": "A Health food restaurant serving delicious food, minimal illustration, flat design, simple shapes, vibrant colors, clean lines, fresh, organic feel, natural",
    "generatedAt": "2025-11-30T05:37:31.212Z"
  },
  {
    "placeId": "ChIJCVEAMZ8Q2jERADAqDsnXjss",
    "title": "The Living Cafe",
    "city": "singapore",
    "imagePath": "/generated-images/singapore_03_the-living-cafe_v2.png",
    "location": {
      "lat": 1.3310546,
      "lng": 103.79644
    },
    "prompt": "A Cafe serving delicious food, minimal illustration, flat design, simple shapes, vibrant colors, clean lines, modern, contemporary",
    "generatedAt": "2025-11-30T05:37:44.897Z"
  },
  {
    "placeId": "ChIJafybayUZ2jERkDSI52lN_oU",
    "title": "Food Lab",
    "city": "singapore",
    "imagePath": "/generated-images/singapore_04_food-lab_v2.png",
    "location": {
      "lat": 1.3012067,
      "lng": 103.8411571
    },
    "prompt": "A Health food restaurant serving delicious food, minimal illustration, flat design, simple shapes, vibrant colors, clean lines, fresh, organic feel, natural",
    "generatedAt": "2025-11-30T05:37:58.045Z"
  },
  {
    "placeId": "ChIJDxQtJT8Q2jERSNsdeBemT70",
    "title": "Sunnychoice Vegan Cafe and Healthy Option Store",
    "city": "singapore",
    "imagePath": "/generated-images/singapore_05_sunnychoice-vegan-cafe-and-healthy-option-store_v2.png",
    "location": {
      "lat": 1.3501645,
      "lng": 103.7499001
    },
    "prompt": "A Vegetarian restaurant serving delicious food, minimal illustration, flat design, simple shapes, vibrant colors, clean lines, fresh, organic feel, natural",
    "generatedAt": "2025-11-30T05:38:12.268Z"
  },
  {
    "placeId": "ChIJWbs-UOwZ2jERwP0GZgSvsgk",
    "title": "iNCREDi BOWL - Clarke Quay",
    "city": "singapore",
    "imagePath": "/generated-images/singapore_06_incredi-bowl-clarke-quay_v2.png",
    "location": {
      "lat": 1.289971,
      "lng": 103.8452405
    },
    "prompt": "A Restaurant serving delicious food, minimal illustration, flat design, simple shapes, vibrant colors, clean lines, elegant, sophisticated, refined",
    "generatedAt": "2025-11-30T05:38:25.880Z"
  },
  {
    "placeId": "ChIJ8x3C5EMa2jERbYQrehIx42o",
    "title": "The Lawn Cafe (Dog-Friendly!)",
    "city": "singapore",
    "imagePath": "/generated-images/singapore_07_the-lawn-cafe-dog-friendly_v2.png",
    "location": {
      "lat": 1.3043649,
      "lng": 103.792365
    },
    "prompt": "A Restaurant serving delicious food, minimal illustration, flat design, simple shapes, vibrant colors, clean lines, modern, contemporary",
    "generatedAt": "2025-11-30T05:38:40.077Z"
  },
  {
    "placeId": "ChIJQ2O4_J0Z2jERk0k8rwB5gQI",
    "title": "Decker Barbecue",
    "city": "singapore",
    "imagePath": "/generated-images/singapore_08_decker-barbecue_v2.png",
    "location": {
      "lat": 1.2900111,
      "lng": 103.8388802
    },
    "prompt": "A Barbecue restaurant serving delicious food, minimal illustration, flat design, simple shapes, vibrant colors, clean lines, modern, contemporary",
    "generatedAt": "2025-11-30T05:38:56.079Z"
  },
  {
    "placeId": "ChIJn9LYSzwZ2jERC1pdZ_LOvIY",
    "title": "Ajoomma Korean Charcoal BBQ Restaurant",
    "city": "singapore",
    "imagePath": "/generated-images/singapore_09_ajoomma-korean-charcoal-bbq-restaurant_v2.png",
    "location": {
      "lat": 1.2825065,
      "lng": 103.847015
    },
    "prompt": "A Restaurant serving delicious food, minimal illustration, flat design, simple shapes, vibrant colors, clean lines, modern, contemporary",
    "generatedAt": "2025-11-30T05:39:15.945Z"
  },
  {
    "placeId": "ChIJt2Ztmr8Z2jER9ZTHTrhVY9o",
    "title": "Hanjip Korean Grill House",
    "city": "singapore",
    "imagePath": "/generated-images/singapore_10_hanjip-korean-grill-house_v2.png",
    "location": {
      "lat": 1.2902129,
      "lng": 103.8459626
    },
    "prompt": "A Korean barbecue restaurant serving delicious food, minimal illustration, flat design, simple shapes, vibrant colors, clean lines, modern, contemporary",
    "generatedAt": "2025-11-30T05:39:30.370Z"
  },
  {
    "placeId": "ChIJVTI_dpEZ2jERXKAaXOqUSzg",
    "title": "Tengoku Yakiniku Singapore | Japanese Restaurant Singapore | Japanese BBQ",
    "city": "singapore",
    "imagePath": "/generated-images/singapore_11_tengoku-yakiniku-singapore-japanese-restaurant-sin_v2.png",
    "location": {
      "lat": 1.2990597,
      "lng": 103.8537436
    },
    "prompt": "A Yakiniku restaurant serving delicious food, minimal illustration, flat design, simple shapes, vibrant colors, clean lines, zen aesthetic, minimalist, clean composition",
    "generatedAt": "2025-11-30T05:39:45.858Z"
  },
  {
    "placeId": "ChIJteJvnl2NGGAR5ffwH6q3ntA",
    "title": "THAI STREET FOOD",
    "city": "tokyo",
    "imagePath": "/generated-images/tokyo_01_thai-street-food_v2.png",
    "location": {
      "lat": 35.7309273,
      "lng": 139.7104197
    },
    "prompt": "A Thai restaurant serving delicious food, minimal illustration, flat design, simple shapes, vibrant colors, clean lines, zen aesthetic, minimalist, clean composition",
    "generatedAt": "2025-11-30T05:39:59.792Z"
  },
  {
    "placeId": "ChIJo3aTTv6NGGAR52gWuI2ZwZ4",
    "title": "Ryu no Miyako Inshokugai (Shinjuku)",
    "city": "tokyo",
    "imagePath": "/generated-images/tokyo_02_ryu-no-miyako-inshokugai-shinjuku_v2.png",
    "location": {
      "lat": 35.6906414,
      "lng": 139.7020365
    },
    "prompt": "A Food court serving delicious food, minimal illustration, flat design, simple shapes, vibrant colors, clean lines, playful, dynamic, energetic",
    "generatedAt": "2025-11-30T05:40:15.206Z"
  },
  {
    "placeId": "ChIJGeYlX_mLGGARwsJahMe-XZg",
    "title": "Tokyo Ramen Street",
    "city": "tokyo",
    "imagePath": "/generated-images/tokyo_03_tokyo-ramen-street_v2.png",
    "location": {
      "lat": 35.6802935,
      "lng": 139.7679568
    },
    "prompt": "Renowned strip of 8 neighboring noodle shops, set in the underground precinct at Tokyo Station., minimal illustration, flat design, simple shapes, vibrant colors, clean lines, playful, dynamic, energetic",
    "generatedAt": "2025-11-30T05:40:28.322Z"
  },
  {
    "placeId": "ChIJoUfFe9KNGGARFzs_SomCDXE",
    "title": "Indian Street Food & Bar Gond",
    "city": "tokyo",
    "imagePath": "/generated-images/tokyo_04_indian-street-food-bar-gond_v2.png",
    "location": {
      "lat": 35.6960873,
      "lng": 139.7639487
    },
    "prompt": "A Indian restaurant serving delicious food, minimal illustration, flat design, simple shapes, vibrant colors, clean lines, warm colors, spices theme",
    "generatedAt": "2025-11-30T05:40:44.163Z"
  },
  {
    "placeId": "ChIJGQbqZlWNGGARHZcB-VdLjBU",
    "title": "J Boy Hong Kong Street Food",
    "city": "tokyo",
    "imagePath": "/generated-images/tokyo_05_j-boy-hong-kong-street-food_v2.png",
    "location": {
      "lat": 35.6602563,
      "lng": 139.699198
    },
    "prompt": "A Chinese takeaway serving delicious food, minimal illustration, flat design, simple shapes, vibrant colors, clean lines, traditional, artistic",
    "generatedAt": "2025-11-30T05:40:56.925Z"
  },
  {
    "placeId": "ChIJ0cQhcdXzGGARACZgRGFgnI4",
    "title": "Pocha Korean Street Food",
    "city": "tokyo",
    "imagePath": "/generated-images/tokyo_06_pocha-korean-street-food_v2.png",
    "location": {
      "lat": 35.6907158,
      "lng": 139.6837709
    },
    "prompt": "A Korean restaurant serving delicious food, minimal illustration, flat design, simple shapes, vibrant colors, clean lines, modern, contemporary",
    "generatedAt": "2025-11-30T05:41:11.656Z"
  },
  {
    "placeId": "ChIJ8eQ-zqiMGGARLHwGVIXrvXk",
    "title": "Luke's Lobster Shibuya Park Street Shop",
    "city": "tokyo",
    "imagePath": "/generated-images/tokyo_07_lukes-lobster-shibuya-park-street-shop_v2.png",
    "location": {
      "lat": 35.6635241,
      "lng": 139.6995462
    },
    "prompt": "A Seafood restaurant serving delicious food, minimal illustration, flat design, simple shapes, vibrant colors, clean lines, modern, contemporary",
    "generatedAt": "2025-11-30T05:41:25.196Z"
  },
  {
    "placeId": "ChIJ9fcZgFWJGGARba-URZY-YKw",
    "title": "Tapas Molecular Bar",
    "city": "tokyo",
    "imagePath": "/generated-images/tokyo_08_tapas-molecular-bar_v2.png",
    "location": {
      "lat": 35.6870501,
      "lng": 139.7730495
    },
    "prompt": "High-concept tasting menu offered in a lauded, intimate restaurant in the Mandarin Oriental hotel., minimal illustration, flat design, simple shapes, vibrant colors, clean lines, zen aesthetic, minimalist, clean composition",
    "generatedAt": "2025-11-30T05:41:38.200Z"
  },
  {
    "placeId": "ChIJV7oGAWWLGGARslO9OGTuG-A",
    "title": "L’Effervescence",
    "city": "tokyo",
    "imagePath": "/generated-images/tokyo_09_leffervescence_v2.png",
    "location": {
      "lat": 35.660214,
      "lng": 139.719405
    },
    "prompt": "French-influenced tasting menus from a top-level Japanese chef, paired with wine or sake flights., minimal illustration, flat design, simple shapes, vibrant colors, clean lines, elegant, sophisticated, refined",
    "generatedAt": "2025-11-30T05:41:53.417Z"
  },
  {
    "placeId": "ChIJrbAVNIOMGGARXNvkApcqvng",
    "title": "Narisawa",
    "city": "tokyo",
    "imagePath": "/generated-images/tokyo_10_narisawa_v2.png",
    "location": {
      "lat": 35.6716221,
      "lng": 139.7221161
    },
    "prompt": "Fine-dining restaurant serving a seasonal & carefully sourced menu of innovative Japanese dishes., minimal illustration, flat design, simple shapes, vibrant colors, clean lines, zen aesthetic, minimalist, clean composition",
    "generatedAt": "2025-11-30T05:42:06.436Z"
  },
  {
    "placeId": "ChIJGUC_l3iLGGARJ0V_A5BfZJs",
    "title": "Héritage by Kei Kobayashi（エリタージュ バイ ケイ コバヤシ）",
    "city": "tokyo",
    "imagePath": "/generated-images/tokyo_11_hritage-by-kei-kobayashi_v2.png",
    "location": {
      "lat": 35.6662932,
      "lng": 139.7312789
    },
    "prompt": "Elegant, contemporary French venue with an expansive view of the city skyline., minimal illustration, flat design, simple shapes, vibrant colors, clean lines, elegant, sophisticated, refined",
    "generatedAt": "2025-11-30T05:42:20.118Z"
  },
  {
    "placeId": "ChIJp2dcohif4jARn3uNvezBlkU",
    "title": "SUSHI SEKI",
    "city": "bangkok",
    "imagePath": "/generated-images/bangkok_12_sushi-seki_v2.png",
    "location": {
      "lat": 13.7322538,
      "lng": 100.5697309
    },
    "prompt": "A Japanese restaurant serving delicious food, minimal illustration, flat design, simple shapes, vibrant colors, clean lines, zen aesthetic, minimalist, clean composition",
    "generatedAt": "2025-12-01T16:25:01.078Z"
  },
  {
    "placeId": "ChIJHbwwjiuf4jARYJDSOTcwKQw",
    "title": "Sushi Yorokobu",
    "city": "bangkok",
    "imagePath": "/generated-images/bangkok_13_sushi-yorokobu_v2.png",
    "location": {
      "lat": 13.7323402,
      "lng": 100.5826309
    },
    "prompt": "A Japanese restaurant serving delicious food, minimal illustration, flat design, simple shapes, vibrant colors, clean lines, zen aesthetic, minimalist, clean composition",
    "generatedAt": "2025-12-01T16:25:20.715Z"
  },
  {
    "placeId": "ChIJG5cMlYmf4jARjI14Tvhzj5I",
    "title": "Sushi Sora",
    "city": "bangkok",
    "imagePath": "/generated-images/bangkok_14_sushi-sora_v2.png",
    "location": {
      "lat": 13.7262378,
      "lng": 100.5431816
    },
    "prompt": "A Sushi restaurant serving delicious food, minimal illustration, flat design, simple shapes, vibrant colors, clean lines, zen aesthetic, minimalist, clean composition",
    "generatedAt": "2025-12-01T16:25:41.428Z"
  },
  {
    "placeId": "ChIJIdQ-0s2e4jAREzCRlcXp3qc",
    "title": "Sra Bua by Kiin Kiin",
    "city": "bangkok",
    "imagePath": "/generated-images/bangkok_15_sra-bua-by-kiin-kiin_v2.png",
    "location": {
      "lat": 13.7485218,
      "lng": 100.5351244
    },
    "prompt": "A Thai restaurant serving delicious food, minimal illustration, flat design, simple shapes, vibrant colors, clean lines, tropical, vibrant",
    "generatedAt": "2025-12-01T16:26:02.808Z"
  },
  {
    "placeId": "ChIJdST1ijuf4jARcFEauDpmIIg",
    "title": "J'AIME by Jean-Michel Lorain at U Sathorn",
    "city": "bangkok",
    "imagePath": "/generated-images/bangkok_16_jaime-by-jean-michel-lorain-at-u-sathorn_v2.png",
    "location": {
      "lat": 13.7182756,
      "lng": 100.5460595
    },
    "prompt": "A Modern French restaurant serving delicious food, minimal illustration, flat design, simple shapes, vibrant colors, clean lines, elegant, sophisticated, refined",
    "generatedAt": "2025-12-01T16:26:22.914Z"
  },
  {
    "placeId": "ChIJg0Kb2I6Y4jARlIfc8vnJ1YU",
    "title": "SEEN Restaurant & Bar Bangkok",
    "city": "bangkok",
    "imagePath": "/generated-images/bangkok_17_seen-restaurant-bar-bangkok_v2.png",
    "location": {
      "lat": 13.7051152,
      "lng": 100.491159
    },
    "prompt": "A Restaurant serving delicious food, minimal illustration, flat design, simple shapes, vibrant colors, clean lines, modern, contemporary",
    "generatedAt": "2025-12-01T16:26:43.840Z"
  },
  {
    "placeId": "ChIJa4FyWkef4jARYosTC995W8U",
    "title": "Sühring",
    "city": "bangkok",
    "imagePath": "/generated-images/bangkok_18_shring_v2.png",
    "location": {
      "lat": 13.7108133,
      "lng": 100.5454871
    },
    "prompt": "Whimsical takes on modern German cuisine are the specialty at this high-end, sophisticated outpost., minimal illustration, flat design, simple shapes, vibrant colors, clean lines, elegant, sophisticated, refined",
    "generatedAt": "2025-12-01T16:27:04.858Z"
  },
  {
    "placeId": "ChIJ9Rn3Stqe4jARvC9rgWzu31Q",
    "title": "Gaa",
    "city": "bangkok",
    "imagePath": "/generated-images/bangkok_19_gaa_v2.png",
    "location": {
      "lat": 13.7273585,
      "lng": 100.5782663
    },
    "prompt": "A Fine dining restaurant serving delicious food, minimal illustration, flat design, simple shapes, vibrant colors, clean lines, elegant, sophisticated, refined",
    "generatedAt": "2025-12-01T16:27:23.237Z"
  },
  {
    "placeId": "ChIJi_nHcf-f4jARAI6VOXH0wII",
    "title": "Gaggan",
    "city": "bangkok",
    "imagePath": "/generated-images/bangkok_20_gaggan_v2.png",
    "location": {
      "lat": 13.7407839,
      "lng": 100.5675867
    },
    "prompt": "A Fine dining restaurant serving delicious food, minimal illustration, flat design, simple shapes, vibrant colors, clean lines, elegant, sophisticated, refined",
    "generatedAt": "2025-12-01T16:27:44.385Z"
  },
  {
    "placeId": "ChIJf8OOlnmZ4jAR1XxCVTOPfPY",
    "title": "Côte by Mauro Colagreco",
    "city": "bangkok",
    "imagePath": "/generated-images/bangkok_21_cte-by-mauro-colagreco_v2.png",
    "location": {
      "lat": 13.7130923,
      "lng": 100.5108469
    },
    "prompt": "A Mediterranean restaurant serving delicious food, minimal illustration, flat design, simple shapes, vibrant colors, clean lines, modern, contemporary",
    "generatedAt": "2025-12-01T16:28:07.982Z"
  },
  {
    "placeId": "ChIJiWeQPu-f4jARWVUZ6NhGzFc",
    "title": "Nine Pastry",
    "city": "bangkok",
    "imagePath": "/generated-images/bangkok_22_nine-pastry_v2.png",
    "location": {
      "lat": 13.7220313,
      "lng": 100.5647485
    },
    "prompt": "A Bakery serving delicious food, minimal illustration, flat design, simple shapes, vibrant colors, clean lines, modern, contemporary",
    "generatedAt": "2025-12-01T16:28:31.165Z"
  },
  {
    "placeId": "ChIJTcCIY_ye4jAR9OSZg67PKrg",
    "title": "Holey Artisan Bakery",
    "city": "bangkok",
    "imagePath": "/generated-images/bangkok_23_holey-artisan-bakery_v2.png",
    "location": {
      "lat": 13.7378682,
      "lng": 100.5664816
    },
    "prompt": "Laid-back locale for paninis, deep dish pizza & craft sandwiches, plus sweet & savory baked goods., minimal illustration, flat design, simple shapes, vibrant colors, clean lines, modern, contemporary",
    "generatedAt": "2025-12-01T16:28:50.670Z"
  },
  {
    "placeId": "ChIJEXKEetCe4jARIEVuiUYBmxE",
    "title": "Erawan Bakery",
    "city": "bangkok",
    "imagePath": "/generated-images/bangkok_24_erawan-bakery_v2.png",
    "location": {
      "lat": 13.7435645,
      "lng": 100.5407624
    },
    "prompt": "A Bakery serving delicious food, minimal illustration, flat design, simple shapes, vibrant colors, clean lines, modern, contemporary",
    "generatedAt": "2025-12-01T16:29:09.190Z"
  },
  {
    "placeId": "ChIJXcKUf-ee4jARX3SbNhcv98c",
    "title": "Bangkok Baking Company/BBCO",
    "city": "bangkok",
    "imagePath": "/generated-images/bangkok_25_bangkok-baking-companybbco_v2.png",
    "location": {
      "lat": 13.7420987,
      "lng": 100.552134
    },
    "prompt": "A Bakery serving delicious food, minimal illustration, flat design, simple shapes, vibrant colors, clean lines, modern, contemporary",
    "generatedAt": "2025-12-01T16:29:29.693Z"
  },
  {
    "placeId": "ChIJU0co1Kee4jARQOxxPxZl2Ao",
    "title": "Landhaus Bakery",
    "city": "bangkok",
    "imagePath": "/generated-images/bangkok_26_landhaus-bakery_v2.png",
    "location": {
      "lat": 13.777467,
      "lng": 100.5411168
    },
    "prompt": "A Bakery serving delicious food, minimal illustration, flat design, simple shapes, vibrant colors, clean lines, modern, contemporary",
    "generatedAt": "2025-12-01T16:29:52.540Z"
  },
  {
    "placeId": "ChIJMzaAp22Z4jAR0j1AwS-vJQQ",
    "title": "Konnichipan Bakery",
    "city": "bangkok",
    "imagePath": "/generated-images/bangkok_28_konnichipan-bakery_v2.png",
    "location": {
      "lat": 13.7618248,
      "lng": 100.4977765
    },
    "prompt": "A Bakery serving delicious food, minimal illustration, flat design, simple shapes, vibrant colors, clean lines, modern, contemporary",
    "generatedAt": "2025-12-01T16:30:14.301Z"
  },
  {
    "placeId": "ChIJQ4KWrNSY4jARPQG3HYMqmM8",
    "title": "The Smokin' Pug",
    "city": "bangkok",
    "imagePath": "/generated-images/bangkok_29_the-smokin-pug_v2.png",
    "location": {
      "lat": 13.7354455,
      "lng": 100.5422186
    },
    "prompt": "A Barbecue restaurant serving delicious food, minimal illustration, flat design, simple shapes, vibrant colors, clean lines, modern, contemporary",
    "generatedAt": "2025-12-01T16:30:35.733Z"
  },
  {
    "placeId": "ChIJcQq1s_-e4jARN4ySRHpTidY",
    "title": "SURA Korean BBQ_by Korean Chef",
    "city": "bangkok",
    "imagePath": "/generated-images/bangkok_30_sura-korean-bbqby-korean-chef_v2.png",
    "location": {
      "lat": 13.7346477,
      "lng": 100.5720937
    },
    "prompt": "A Korean barbecue restaurant serving delicious food, minimal illustration, flat design, simple shapes, vibrant colors, clean lines, modern, contemporary",
    "generatedAt": "2025-12-01T16:30:54.119Z"
  },
  {
    "placeId": "ChIJ_fWmjCuf4jAR8ZipWSpaR5A",
    "title": "Roadhouse Barbecue",
    "city": "bangkok",
    "imagePath": "/generated-images/bangkok_31_roadhouse-barbecue_v2.png",
    "location": {
      "lat": 13.7304465,
      "lng": 100.5335921
    },
    "prompt": "A Barbecue restaurant serving delicious food, minimal illustration, flat design, simple shapes, vibrant colors, clean lines, modern, contemporary",
    "generatedAt": "2025-12-01T16:31:12.758Z"
  },
  {
    "placeId": "ChIJbykHRfSf4jARn2JYKm5ZdFM",
    "title": "KBBQ Sukhumvit",
    "city": "bangkok",
    "imagePath": "/generated-images/bangkok_32_kbbq-sukhumvit_v2.png",
    "location": {
      "lat": 13.7420055,
      "lng": 100.5581905
    },
    "prompt": "Classic Korean barbecue dishes lie in store at this casual, industrial-style buffet restaurant., minimal illustration, flat design, simple shapes, vibrant colors, clean lines, modern, contemporary",
    "generatedAt": "2025-12-01T16:31:36.090Z"
  },
  {
    "placeId": "ChIJ8UVLROWe4jARGpxT2uG81is",
    "title": "Seoul BBQ โซล บาร์บีคิว",
    "city": "bangkok",
    "imagePath": "/generated-images/bangkok_33_seoul-bbq_v2.png",
    "location": {
      "lat": 13.7437222,
      "lng": 100.5624749
    },
    "prompt": "A Barbecue restaurant serving delicious food, minimal illustration, flat design, simple shapes, vibrant colors, clean lines, modern, contemporary",
    "generatedAt": "2025-12-01T16:31:55.751Z"
  },
  {
    "placeId": "ChIJq7cwAeOf4jAR-DzBFuyEH6k",
    "title": "Holy Smokes",
    "city": "bangkok",
    "imagePath": "/generated-images/bangkok_34_holy-smokes_v2.png",
    "location": {
      "lat": 13.7148329,
      "lng": 100.594156
    },
    "prompt": "A Barbecue restaurant serving delicious food, minimal illustration, flat design, simple shapes, vibrant colors, clean lines, modern, contemporary",
    "generatedAt": "2025-12-01T16:32:21.087Z"
  },
  {
    "placeId": "ChIJj1bmegCf4jARke7mSK0ygBE",
    "title": "NIKU NIKU Japanese BBQ",
    "city": "bangkok",
    "imagePath": "/generated-images/bangkok_35_niku-niku-japanese-bbq_v2.png",
    "location": {
      "lat": 13.7160803,
      "lng": 100.5897608
    },
    "prompt": "A Barbecue restaurant serving delicious food, minimal illustration, flat design, simple shapes, vibrant colors, clean lines, modern, contemporary",
    "generatedAt": "2025-12-01T16:32:40.585Z"
  },
  {
    "placeId": "ChIJZcCDsgaf4jARqTSRq8LdhP4",
    "title": "Pimp My Salad Bangkok",
    "city": "bangkok",
    "imagePath": "/generated-images/bangkok_36_pimp-my-salad-bangkok_v2.png",
    "location": {
      "lat": 13.7227336,
      "lng": 100.5312485
    },
    "prompt": "A Salad shop serving delicious food, minimal illustration, flat design, simple shapes, vibrant colors, clean lines, modern, contemporary",
    "generatedAt": "2025-12-01T16:32:59.550Z"
  },
  {
    "placeId": "ChIJtQpmMhOZ4jARJiZhOZuPJFs",
    "title": "Ethos Vegetarian Restaurant",
    "city": "bangkok",
    "imagePath": "/generated-images/bangkok_37_ethos-vegetarian-restaurant_v2.png",
    "location": {
      "lat": 13.7585887,
      "lng": 100.4994116
    },
    "prompt": "A Vegetarian restaurant serving delicious food, minimal illustration, flat design, simple shapes, vibrant colors, clean lines, modern, contemporary",
    "generatedAt": "2025-12-01T16:33:18.146Z"
  },
  {
    "placeId": "ChIJOS10P9eZ4jARnyOMJWAYx0M",
    "title": "May Kaidee Tanao Vegetarian & Vegan Restaurant",
    "city": "bangkok",
    "imagePath": "/generated-images/bangkok_38_may-kaidee-tanao-vegetarian-vegan-restaurant_v2.png",
    "location": {
      "lat": 13.766276,
      "lng": 100.4994861
    },
    "prompt": "A Vegetarian restaurant serving delicious food, minimal illustration, flat design, simple shapes, vibrant colors, clean lines, modern, contemporary",
    "generatedAt": "2025-12-01T16:33:34.862Z"
  },
  {
    "placeId": "ChIJrVO6v9CZ4jARktYGKDwyZaQ",
    "title": "Jones' Salad สาขา ศาลาแดง (Saladaeng)",
    "city": "bangkok",
    "imagePath": "/generated-images/bangkok_39_jones-salad-saladaeng_v2.png",
    "location": {
      "lat": 13.7282999,
      "lng": 100.5341023
    },
    "prompt": "A Health food restaurant serving delicious food, minimal illustration, flat design, simple shapes, vibrant colors, clean lines, modern, contemporary",
    "generatedAt": "2025-12-01T16:33:53.869Z"
  },
  {
    "placeId": "ChIJ5WbjGkaf4jARB4f7GN8Rm_4",
    "title": "SaladStop! Chidlom",
    "city": "bangkok",
    "imagePath": "/generated-images/bangkok_40_saladstop-chidlom_v2.png",
    "location": {
      "lat": 13.744912,
      "lng": 100.5448624
    },
    "prompt": "A Salad shop serving delicious food, minimal illustration, flat design, simple shapes, vibrant colors, clean lines, modern, contemporary",
    "generatedAt": "2025-12-01T16:34:12.937Z"
  },
  {
    "placeId": "ChIJFc11EPOf4jAR3qq5PO2JXdo",
    "title": "Genius Bar BKK - Bone Broth Cafe",
    "city": "bangkok",
    "imagePath": "/generated-images/bangkok_41_genius-bar-bkk-bone-broth-cafe_v2.png",
    "location": {
      "lat": 13.730746,
      "lng": 100.5820101
    },
    "prompt": "A Health food restaurant serving delicious food, minimal illustration, flat design, simple shapes, vibrant colors, clean lines, modern, contemporary",
    "generatedAt": "2025-12-01T16:34:31.611Z"
  },
  {
    "placeId": "ChIJB7CGOH-D4jARJZY6ZiECgo4",
    "title": "Bella Healthy Food",
    "city": "bangkok",
    "imagePath": "/generated-images/bangkok_42_bella-healthy-food_v2.png",
    "location": {
      "lat": 13.8805051,
      "lng": 100.5651472
    },
    "prompt": "A Health food restaurant serving delicious food, minimal illustration, flat design, simple shapes, vibrant colors, clean lines, modern, contemporary",
    "generatedAt": "2025-12-01T16:34:52.182Z"
  },
  {
    "placeId": "ChIJa7OD2myZ4jARqLPafoMIPdg",
    "title": "Mango Vegetarian & Vegan",
    "city": "bangkok",
    "imagePath": "/generated-images/bangkok_43_mango-vegetarian-vegan_v2.png",
    "location": {
      "lat": 13.7596091,
      "lng": 100.4992991
    },
    "prompt": "A Vegetarian restaurant serving delicious food, minimal illustration, flat design, simple shapes, vibrant colors, clean lines, modern, contemporary",
    "generatedAt": "2025-12-01T16:35:17.479Z"
  },
  {
    "placeId": "ChIJYcxL6AKf4jARaReg9fAzYkM",
    "title": "Govinda Vegetarian Vegan Restaurant in Bangkok",
    "city": "bangkok",
    "imagePath": "/generated-images/bangkok_44_govinda-vegetarian-vegan-restaurant-in-bangkok_v2.png",
    "location": {
      "lat": 13.7326902,
      "lng": 100.5649513
    },
    "prompt": "A Vegetarian restaurant serving delicious food, minimal illustration, flat design, simple shapes, vibrant colors, clean lines, modern, contemporary",
    "generatedAt": "2025-12-01T16:35:42.420Z"
  },
  {
    "placeId": "ChIJl74Vqcuf4jARO9oY5torUrE",
    "title": "VEGANERIE Concept",
    "city": "bangkok",
    "imagePath": "/generated-images/bangkok_45_veganerie-concept_v2.png",
    "location": {
      "lat": 13.7288529,
      "lng": 100.5668131
    },
    "prompt": "A Vegan restaurant serving delicious food, minimal illustration, flat design, simple shapes, vibrant colors, clean lines, modern, contemporary",
    "generatedAt": "2025-12-01T16:36:00.839Z"
  },
  {
    "placeId": "ChIJXU_guo6f4jARpit2dkTfWAo",
    "title": "Mercy Republic",
    "city": "bangkok",
    "imagePath": "/generated-images/bangkok_46_mercy-republic_v2.png",
    "location": {
      "lat": 13.7397642,
      "lng": 100.5652833
    },
    "prompt": "A Vegan restaurant serving delicious food, minimal illustration, flat design, simple shapes, vibrant colors, clean lines, modern, contemporary",
    "generatedAt": "2025-12-01T16:36:18.166Z"
  },
  {
    "placeId": "ChIJrR9ueByf4jARNX5qJzMAIwI",
    "title": "Vistro-Vegan Cafe & Restaurant",
    "city": "bangkok",
    "imagePath": "/generated-images/bangkok_47_vistro-vegan-cafe-restaurant_v2.png",
    "location": {
      "lat": 13.7272629,
      "lng": 100.5682153
    },
    "prompt": "A Vegan restaurant serving delicious food, minimal illustration, flat design, simple shapes, vibrant colors, clean lines, modern, contemporary",
    "generatedAt": "2025-12-01T16:36:35.085Z"
  },
  {
    "placeId": "ChIJc3hzcmWf4jAR2hvoJQXUfxQ",
    "title": "Veganerie Nana",
    "city": "bangkok",
    "imagePath": "/generated-images/bangkok_48_veganerie-nana_v2.png",
    "location": {
      "lat": 13.7412261,
      "lng": 100.556443
    },
    "prompt": "A Vegan restaurant serving delicious food, minimal illustration, flat design, simple shapes, vibrant colors, clean lines, modern, contemporary",
    "generatedAt": "2025-12-01T16:36:54.338Z"
  },
  {
    "placeId": "ChIJI1bvyd6f4jARsHG6FpjihHc",
    "title": "Baan Ying Plant-Based - Thai Vegan All Day Dining & Wine Bar",
    "city": "bangkok",
    "imagePath": "/generated-images/bangkok_49_baan-ying-plant-based-thai-vegan-all-day-dining-wi_v2.png",
    "location": {
      "lat": 13.7386357,
      "lng": 100.5414747
    },
    "prompt": "A Vegan restaurant serving delicious food, minimal illustration, flat design, simple shapes, vibrant colors, clean lines, modern, contemporary",
    "generatedAt": "2025-12-01T16:37:11.345Z"
  },
  {
    "placeId": "ChIJrcC3iq2ZpBIRyVqXiw2N8XU",
    "title": "Cocina Hermanos Torres",
    "city": "barcelona",
    "imagePath": "/generated-images/barcelona_12_cocina-hermanos-torres_v2.png",
    "location": {
      "lat": 41.3864925,
      "lng": 2.1401248
    },
    "prompt": "Huge open kitchen where diners can collaborate with chefs on their own refined tasting menus., minimal illustration, flat design, simple shapes, vibrant colors, clean lines, elegant, sophisticated, refined",
    "generatedAt": "2025-12-01T16:37:32.165Z"
  },
  {
    "placeId": "ChIJp1NbA4WYpBIRGemH5XFZE50",
    "title": "UMA",
    "city": "barcelona",
    "imagePath": "/generated-images/barcelona_13_uma_v2.png",
    "location": {
      "lat": 41.3948167,
      "lng": 2.1635591
    },
    "prompt": "Tasting menus of creative gastronomy & wine pairings in an intimate room with quirky artwork., minimal illustration, flat design, simple shapes, vibrant colors, clean lines, modern, contemporary",
    "generatedAt": "2025-12-01T16:37:49.897Z"
  },
  {
    "placeId": "ChIJUych0ZWipBIRYdSbrR8MEW8",
    "title": "Con Gracia",
    "city": "barcelona",
    "imagePath": "/generated-images/barcelona_14_con-gracia_v2.png",
    "location": {
      "lat": 41.3990681,
      "lng": 2.1600541
    },
    "prompt": "Artfully presented Mediterranean dishes at a classy venue offering tasting menus with wine pairings., minimal illustration, flat design, simple shapes, vibrant colors, clean lines, modern, contemporary",
    "generatedAt": "2025-12-01T16:38:06.469Z"
  },
  {
    "placeId": "ChIJI0Kjcf6ipBIRUiHGMcGog88",
    "title": "Patisserie Hofmann",
    "city": "barcelona",
    "imagePath": "/generated-images/barcelona_15_patisserie-hofmann_v2.png",
    "location": {
      "lat": 41.385079,
      "lng": 2.1827036
    },
    "prompt": "A Cake shop serving delicious food, minimal illustration, flat design, simple shapes, vibrant colors, clean lines, modern, contemporary",
    "generatedAt": "2025-12-01T16:38:25.178Z"
  },
  {
    "placeId": "ChIJG0p1BKqjpBIRrJXcNJtAw-w",
    "title": "Baluard Barceloneta",
    "city": "barcelona",
    "imagePath": "/generated-images/barcelona_16_baluard-barceloneta_v2.png",
    "location": {
      "lat": 41.3800126,
      "lng": 2.1889083
    },
    "prompt": "A Bakery serving delicious food, minimal illustration, flat design, simple shapes, vibrant colors, clean lines, modern, contemporary",
    "generatedAt": "2025-12-01T16:38:46.515Z"
  },
  {
    "placeId": "ChIJG03uY0OjpBIR4EqiZZRP05g",
    "title": "Villa Bakery",
    "city": "barcelona",
    "imagePath": "/generated-images/barcelona_17_villa-bakery_v2.png",
    "location": {
      "lat": 41.3911342,
      "lng": 2.1712861
    },
    "prompt": "A Bakery serving delicious food, minimal illustration, flat design, simple shapes, vibrant colors, clean lines, modern, contemporary",
    "generatedAt": "2025-12-01T16:39:04.108Z"
  },
  {
    "placeId": "ChIJn4lKN_mipBIR5GCoBNWdYp4",
    "title": "La Colmena",
    "city": "barcelona",
    "imagePath": "/generated-images/barcelona_18_la-colmena_v2.png",
    "location": {
      "lat": 41.3838319,
      "lng": 2.1782333
    },
    "prompt": "Longstanding, counter-serve venue for elaborate cakes, chocolates & cookies, plus savory snacks., minimal illustration, flat design, simple shapes, vibrant colors, clean lines, modern, contemporary",
    "generatedAt": "2025-12-01T16:39:25.584Z"
  },
  {
    "placeId": "ChIJF6OVORajpBIR_902rEa4mqU",
    "title": "Baluard Barceloneta",
    "city": "barcelona",
    "imagePath": "/generated-images/barcelona_19_baluard-barceloneta_v2.png",
    "location": {
      "lat": 41.3964854,
      "lng": 2.1624008
    },
    "prompt": "A Bakery serving delicious food, minimal illustration, flat design, simple shapes, vibrant colors, clean lines, modern, contemporary",
    "generatedAt": "2025-12-01T16:39:41.893Z"
  },
  {
    "placeId": "ChIJTzsdvD-jpBIR917EZ8uElRU",
    "title": "Furnos",
    "city": "barcelona",
    "imagePath": "/generated-images/barcelona_20_furnos_v2.png",
    "location": {
      "lat": 41.4018052,
      "lng": 2.2025143
    },
    "prompt": "A Bakery serving delicious food, minimal illustration, flat design, simple shapes, vibrant colors, clean lines, modern, contemporary",
    "generatedAt": "2025-12-01T16:39:58.083Z"
  },
  {
    "placeId": "ChIJO-_FXpGjpBIRDQ52XEP6CCI",
    "title": "Baluard Barceloneta",
    "city": "barcelona",
    "imagePath": "/generated-images/barcelona_21_baluard-barceloneta_v2.png",
    "location": {
      "lat": 41.396286,
      "lng": 2.1631283
    },
    "prompt": "A Bakery serving delicious food, minimal illustration, flat design, simple shapes, vibrant colors, clean lines, modern, contemporary",
    "generatedAt": "2025-12-01T16:40:15.606Z"
  },
  {
    "placeId": "ChIJl0ZZHxujpBIRN2y9xZrUuRI",
    "title": "All you eat is love",
    "city": "barcelona",
    "imagePath": "/generated-images/barcelona_22_all-you-eat-is-love_v2.png",
    "location": {
      "lat": 41.3916855,
      "lng": 2.1914489
    },
    "prompt": "A Restaurant serving delicious food, minimal illustration, flat design, simple shapes, vibrant colors, clean lines, modern, contemporary",
    "generatedAt": "2025-12-01T16:40:32.782Z"
  },
  {
    "placeId": "ChIJj1lgDKKjpBIRn1AUcVhfi3o",
    "title": "Roots & Rolls",
    "city": "barcelona",
    "imagePath": "/generated-images/barcelona_23_roots-rolls_v2.png",
    "location": {
      "lat": 41.395297,
      "lng": 2.171119
    },
    "prompt": "Inventive vegan sushi & maki, plus curries, tacos & gyoza, in a minimalist, warehouse-chic space., minimal illustration, flat design, simple shapes, vibrant colors, clean lines, modern, contemporary",
    "generatedAt": "2025-12-01T16:40:50.314Z"
  },
  {
    "placeId": "ChIJrYQNDgejpBIRay4BITEgCsE",
    "title": "Faire. Brunch & Drinks",
    "city": "barcelona",
    "imagePath": "/generated-images/barcelona_24_faire-brunch-drinks_v2.png",
    "location": {
      "lat": 41.3951705,
      "lng": 2.1702878
    },
    "prompt": "Carefully sourced vegetarian & vegan offerings in a roomy destination with a hip vibe., minimal illustration, flat design, simple shapes, vibrant colors, clean lines, modern, contemporary",
    "generatedAt": "2025-12-01T16:41:12.930Z"
  },
  {
    "placeId": "ChIJQbYyNCajpBIRnffZNz5i0tM",
    "title": "Froots & Roots - Healthy Juice Bar",
    "city": "barcelona",
    "imagePath": "/generated-images/barcelona_25_froots-roots-healthy-juice-bar_v2.png",
    "location": {
      "lat": 41.3810616,
      "lng": 2.1670237
    },
    "prompt": "A Health food restaurant serving delicious food, minimal illustration, flat design, simple shapes, vibrant colors, clean lines, modern, contemporary",
    "generatedAt": "2025-12-01T16:41:35.697Z"
  },
  {
    "placeId": "ChIJqVSN2fWipBIRQZz3GV1AauI",
    "title": "Biocenter",
    "city": "barcelona",
    "imagePath": "/generated-images/barcelona_26_biocenter_v2.png",
    "location": {
      "lat": 41.3825075,
      "lng": 2.1693781
    },
    "prompt": "Bright, airy cafe for vegetarian tapas & salads, plus meatless burgers, desserts & juices., minimal illustration, flat design, simple shapes, vibrant colors, clean lines, modern, contemporary",
    "generatedAt": "2025-12-01T16:41:53.343Z"
  },
  {
    "placeId": "ChIJD5oxPGKjpBIR0_oQHSHLROU",
    "title": "Generation B - Healthy food para todos",
    "city": "barcelona",
    "imagePath": "/generated-images/barcelona_27_generation-b-healthy-food-para-todos_v2.png",
    "location": {
      "lat": 41.397229,
      "lng": 2.1684764
    },
    "prompt": "A Health food restaurant serving delicious food, minimal illustration, flat design, simple shapes, vibrant colors, clean lines, modern, contemporary",
    "generatedAt": "2025-12-01T16:42:09.237Z"
  },
  {
    "placeId": "ChIJqRoSEaqjpBIRdWeA8DkitkE",
    "title": "FitBar - Açai Bowls & Healthy Food",
    "city": "barcelona",
    "imagePath": "/generated-images/barcelona_28_fitbar-aai-bowls-healthy-food_v2.png",
    "location": {
      "lat": 41.3796196,
      "lng": 2.1884266
    },
    "prompt": "A Health food restaurant serving delicious food, minimal illustration, flat design, simple shapes, vibrant colors, clean lines, modern, contemporary",
    "generatedAt": "2025-12-01T16:42:27.477Z"
  },
  {
    "placeId": "ChIJ168J5w2jpBIRzWLMd9pRSNE",
    "title": "The Ranch Smokehouse",
    "city": "barcelona",
    "imagePath": "/generated-images/barcelona_29_the-ranch-smokehouse_v2.png",
    "location": {
      "lat": 41.3868159,
      "lng": 2.1676503
    },
    "prompt": "A Barbecue restaurant serving delicious food, minimal illustration, flat design, simple shapes, vibrant colors, clean lines, modern, contemporary",
    "generatedAt": "2025-12-01T16:42:45.407Z"
  },
  {
    "placeId": "ChIJURnDMyujpBIR5UEoA1aVmos",
    "title": "Yamato BBQ Barcelona",
    "city": "barcelona",
    "imagePath": "/generated-images/barcelona_30_yamato-bbq-barcelona_v2.png",
    "location": {
      "lat": 41.4027626,
      "lng": 2.1770485
    },
    "prompt": "A Authentic Japanese restaurant serving delicious food, minimal illustration, flat design, simple shapes, vibrant colors, clean lines, zen aesthetic, minimalist, clean composition",
    "generatedAt": "2025-12-01T16:43:03.907Z"
  },
  {
    "placeId": "ChIJpaWyE3ejpBIREOkb4uslans",
    "title": "KIM BBQ",
    "city": "barcelona",
    "imagePath": "/generated-images/barcelona_31_kim-bbq_v2.png",
    "location": {
      "lat": 41.3919907,
      "lng": 2.154838
    },
    "prompt": "A Korean restaurant serving delicious food, minimal illustration, flat design, simple shapes, vibrant colors, clean lines, modern, contemporary",
    "generatedAt": "2025-12-01T16:43:21.243Z"
  },
  {
    "placeId": "ChIJLzeRUnijpBIR4F0mjOIfjKI",
    "title": "La Parrillada Grill Steak House",
    "city": "barcelona",
    "imagePath": "/generated-images/barcelona_32_la-parrillada-grill-steak-house_v2.png",
    "location": {
      "lat": 41.380872,
      "lng": 2.1908376
    },
    "prompt": "A Argentinian restaurant serving delicious food, minimal illustration, flat design, simple shapes, vibrant colors, clean lines, modern, contemporary",
    "generatedAt": "2025-12-01T16:43:39.736Z"
  },
  {
    "placeId": "ChIJbcvhLoqZpBIRJ0vf4C7mqV4",
    "title": "MONGOLIAN BBQ",
    "city": "barcelona",
    "imagePath": "/generated-images/barcelona_33_mongolian-bbq_v2.png",
    "location": {
      "lat": 41.3714614,
      "lng": 2.1432584
    },
    "prompt": "A Restaurant serving delicious food, minimal illustration, flat design, simple shapes, vibrant colors, clean lines, modern, contemporary",
    "generatedAt": "2025-12-01T16:43:59.063Z"
  },
  {
    "placeId": "ChIJtV6lDQCjpBIRoju-vxvcKXI",
    "title": "BUFFET YA (Buffet BBQ)",
    "city": "barcelona",
    "imagePath": "/generated-images/barcelona_34_buffet-ya-buffet-bbq_v2.png",
    "location": {
      "lat": 41.3904903,
      "lng": 2.1613297
    },
    "prompt": "A Barbecue restaurant serving delicious food, minimal illustration, flat design, simple shapes, vibrant colors, clean lines, modern, contemporary",
    "generatedAt": "2025-12-01T16:44:15.627Z"
  },
  {
    "placeId": "ChIJb6IgCV-jpBIRQRItYk0Mrek",
    "title": "LAZEEZ BBQ Lebanese restaurant",
    "city": "barcelona",
    "imagePath": "/generated-images/barcelona_35_lazeez-bbq-lebanese-restaurant_v2.png",
    "location": {
      "lat": 41.4016977,
      "lng": 2.151145
    },
    "prompt": "A Lebanese restaurant serving delicious food, minimal illustration, flat design, simple shapes, vibrant colors, clean lines, modern, contemporary",
    "generatedAt": "2025-12-01T16:44:33.161Z"
  },
  {
    "placeId": "ChIJgW7kDq-jpBIRYx1XEKSBP5Q",
    "title": "Vegan Mount | Barcelona",
    "city": "barcelona",
    "imagePath": "/generated-images/barcelona_36_vegan-mount-barcelona_v2.png",
    "location": {
      "lat": 41.4048831,
      "lng": 2.1798318
    },
    "prompt": "A Vegan restaurant serving delicious food, minimal illustration, flat design, simple shapes, vibrant colors, clean lines, modern, contemporary",
    "generatedAt": "2025-12-01T16:44:51.979Z"
  },
  {
    "placeId": "ChIJG9lj5iajpBIRNIlqyQUR4Hg",
    "title": "Mundo Vegan",
    "city": "barcelona",
    "imagePath": "/generated-images/barcelona_37_mundo-vegan_v2.png",
    "location": {
      "lat": 41.3888583,
      "lng": 2.1569004
    },
    "prompt": "A Vegan restaurant serving delicious food, minimal illustration, flat design, simple shapes, vibrant colors, clean lines, modern, contemporary",
    "generatedAt": "2025-12-01T16:45:09.638Z"
  },
  {
    "placeId": "ChIJB1mfgNujpBIRFmKv849ZqM4",
    "title": "The Vegan Corner",
    "city": "barcelona",
    "imagePath": "/generated-images/barcelona_38_the-vegan-corner_v2.png",
    "location": {
      "lat": 41.3814111,
      "lng": 2.1784479
    },
    "prompt": "A Vegan restaurant serving delicious food, minimal illustration, flat design, simple shapes, vibrant colors, clean lines, modern, contemporary",
    "generatedAt": "2025-12-01T16:45:28.268Z"
  },
  {
    "placeId": "ChIJ60JIOAOjpBIRk1qAhVnCmbE",
    "title": "Santa Vegana",
    "city": "barcelona",
    "imagePath": "/generated-images/barcelona_39_santa-vegana_v2.png",
    "location": {
      "lat": 41.3803566,
      "lng": 2.1770852
    },
    "prompt": "A Vegan restaurant serving delicious food, minimal illustration, flat design, simple shapes, vibrant colors, clean lines, modern, contemporary",
    "generatedAt": "2025-12-01T16:45:45.186Z"
  },
  {
    "placeId": "ChIJ_b5U2FCjpBIRlJ6bGUtwI8o",
    "title": "Mad Mad Vegan Barcelona",
    "city": "barcelona",
    "imagePath": "/generated-images/barcelona_40_mad-mad-vegan-barcelona_v2.png",
    "location": {
      "lat": 41.3886297,
      "lng": 2.1586657
    },
    "prompt": "A Vegan restaurant serving delicious food, minimal illustration, flat design, simple shapes, vibrant colors, clean lines, modern, contemporary",
    "generatedAt": "2025-12-01T16:46:01.370Z"
  },
  {
    "placeId": "ChIJW2QGCA2jpBIR5fCbZ4ovskg",
    "title": "Fat Veggies",
    "city": "barcelona",
    "imagePath": "/generated-images/barcelona_41_fat-veggies_v2.png",
    "location": {
      "lat": 41.3962184,
      "lng": 2.1713698
    },
    "prompt": "Cool, rustic restaurant turning out wood-fired vegetarian & vegan shared plates, mains & desserts., minimal illustration, flat design, simple shapes, vibrant colors, clean lines, modern, contemporary",
    "generatedAt": "2025-12-01T16:46:19.290Z"
  },
  {
    "placeId": "ChIJvxcjsKCjpBIRvoUMdCN4U2w",
    "title": "Vegan Tulsi Restaurant",
    "city": "barcelona",
    "imagePath": "/generated-images/barcelona_42_vegan-tulsi-restaurant_v2.png",
    "location": {
      "lat": 41.3878836,
      "lng": 2.1610766
    },
    "prompt": "A Vegan restaurant serving delicious food, minimal illustration, flat design, simple shapes, vibrant colors, clean lines, modern, contemporary",
    "generatedAt": "2025-12-01T16:46:37.690Z"
  },
  {
    "placeId": "ChIJ-7F5hYSjpBIR9ZbK9LYTxmc",
    "title": "TERNERITO street food",
    "city": "barcelona",
    "imagePath": "/generated-images/barcelona_43_ternerito-street-food_v2.png",
    "location": {
      "lat": 41.4052533,
      "lng": 2.1774363
    },
    "prompt": "A Hamburger restaurant serving delicious food, minimal illustration, flat design, simple shapes, vibrant colors, clean lines, modern, contemporary",
    "generatedAt": "2025-12-01T16:46:55.360Z"
  },
  {
    "placeId": "ChIJ8S6Xwi-jpBIR6_6zwVVFqBs",
    "title": "Benna Tunisian Street Food",
    "city": "barcelona",
    "imagePath": "/generated-images/barcelona_44_benna-tunisian-street-food_v2.png",
    "location": {
      "lat": 41.3990451,
      "lng": 2.1890433
    },
    "prompt": "A Tunisian restaurant serving delicious food, minimal illustration, flat design, simple shapes, vibrant colors, clean lines, modern, contemporary",
    "generatedAt": "2025-12-01T16:47:15.163Z"
  },
  {
    "placeId": "ChIJ1-Cye6OipBIRxpfgjCDejPk",
    "title": "Toma Ya Street Food",
    "city": "barcelona",
    "imagePath": "/generated-images/barcelona_45_toma-ya-street-food_v2.png",
    "location": {
      "lat": 41.406313,
      "lng": 2.152386
    },
    "prompt": "Casual Peruvian bites, including ceviche & dishes with Asian flair, in warm, familiar environs., minimal illustration, flat design, simple shapes, vibrant colors, clean lines, modern, contemporary",
    "generatedAt": "2025-12-01T16:47:33.055Z"
  },
  {
    "placeId": "ChIJiWujzumjpBIR3RiN1odNAVE",
    "title": "Salsa Street Food",
    "city": "barcelona",
    "imagePath": "/generated-images/barcelona_46_salsa-street-food_v2.png",
    "location": {
      "lat": 41.3896231,
      "lng": 2.1557491
    },
    "prompt": "A Mexican restaurant serving delicious food, minimal illustration, flat design, simple shapes, vibrant colors, clean lines, modern, contemporary",
    "generatedAt": "2025-12-01T16:47:49.244Z"
  },
  {
    "placeId": "ChIJu9DtveKjpBIRwbRWvcqo_Us",
    "title": "Z&Co. - Lebanese Street Food",
    "city": "barcelona",
    "imagePath": "/generated-images/barcelona_47_zco-lebanese-street-food_v2.png",
    "location": {
      "lat": 41.3907184,
      "lng": 2.1604531
    },
    "prompt": "A Lebanese restaurant serving delicious food, minimal illustration, flat design, simple shapes, vibrant colors, clean lines, modern, contemporary",
    "generatedAt": "2025-12-01T16:48:06.929Z"
  },
  {
    "placeId": "ChIJV2DOuvmZpBIRL8AHY8bNGDI",
    "title": "Kinara Street Food",
    "city": "barcelona",
    "imagePath": "/generated-images/barcelona_48_kinara-street-food_v2.png",
    "location": {
      "lat": 41.3788542,
      "lng": 2.1428259
    },
    "prompt": "A Restaurant serving delicious food, minimal illustration, flat design, simple shapes, vibrant colors, clean lines, modern, contemporary",
    "generatedAt": "2025-12-01T16:48:24.535Z"
  },
  {
    "placeId": "ChIJGcTse_aipBIR4FIuC5FxHd0",
    "title": "Chivuo's - Raval",
    "city": "barcelona",
    "imagePath": "/generated-images/barcelona_49_chivuos-raval_v2.png",
    "location": {
      "lat": 41.3829468,
      "lng": 2.169966
    },
    "prompt": "A Hamburger restaurant serving delicious food, minimal illustration, flat design, simple shapes, vibrant colors, clean lines, modern, contemporary",
    "generatedAt": "2025-12-01T16:48:42.038Z"
  },
  {
    "placeId": "ChIJB-qdUXsABDQRlotSKcO6_3Q",
    "title": "Ta Vie",
    "city": "hongkong",
    "imagePath": "/generated-images/hongkong_12_ta-vie_v2.png",
    "location": {
      "lat": 22.2827593,
      "lng": 114.1553459
    },
    "prompt": "A French restaurant serving delicious food, minimal illustration, flat design, simple shapes, vibrant colors, clean lines, elegant, sophisticated, refined",
    "generatedAt": "2025-12-01T16:49:00.377Z"
  },
  {
    "placeId": "ChIJSxgLr3sABDQRKGr7Fnsagkc",
    "title": "BELON",
    "city": "hongkong",
    "imagePath": "/generated-images/hongkong_13_belon_v2.png",
    "location": {
      "lat": 22.2830158,
      "lng": 114.1524584
    },
    "prompt": "A French restaurant serving delicious food, minimal illustration, flat design, simple shapes, vibrant colors, clean lines, elegant, sophisticated, refined",
    "generatedAt": "2025-12-01T16:49:19.073Z"
  },
  {
    "placeId": "ChIJV7PgVmQABDQRHiSAyJLEktI",
    "title": "Mott 32",
    "city": "hongkong",
    "imagePath": "/generated-images/hongkong_14_mott-32_v2.png",
    "location": {
      "lat": 22.2806407,
      "lng": 114.1591079
    },
    "prompt": "Elevated eatery serving contemporary Chinese dishes & clever cocktails in a design-led dining area., minimal illustration, flat design, simple shapes, vibrant colors, clean lines, modern, contemporary",
    "generatedAt": "2025-12-01T16:49:36.536Z"
  },
  {
    "placeId": "ChIJs9kej0YBBDQRwATy1ORZE3Q",
    "title": "Kanesaka Hong Kong",
    "city": "hongkong",
    "imagePath": "/generated-images/hongkong_15_kanesaka-hong-kong_v2.png",
    "location": {
      "lat": 22.2813979,
      "lng": 114.1614918
    },
    "prompt": "A Sushi restaurant serving delicious food, minimal illustration, flat design, simple shapes, vibrant colors, clean lines, zen aesthetic, minimalist, clean composition",
    "generatedAt": "2025-12-01T16:49:52.690Z"
  },
  {
    "placeId": "ChIJm4cNqiYBBDQR4rLpUYQoG-M",
    "title": "Sushi Rin",
    "city": "hongkong",
    "imagePath": "/generated-images/hongkong_16_sushi-rin_v2.png",
    "location": {
      "lat": 22.2855942,
      "lng": 114.1501611
    },
    "prompt": "A Authentic Japanese restaurant serving delicious food, minimal illustration, flat design, simple shapes, vibrant colors, clean lines, zen aesthetic, minimalist, clean composition",
    "generatedAt": "2025-12-01T16:50:09.966Z"
  },
  {
    "placeId": "ChIJ154f5NcBBDQR8yMiyA3ZSM0",
    "title": "Sushi Saito",
    "city": "hongkong",
    "imagePath": "/generated-images/hongkong_17_sushi-saito_v2.png",
    "location": {
      "lat": 22.2866954,
      "lng": 114.1566925
    },
    "prompt": "A Sushi restaurant serving delicious food, minimal illustration, flat design, simple shapes, vibrant colors, clean lines, zen aesthetic, minimalist, clean composition",
    "generatedAt": "2025-12-01T16:50:28.613Z"
  },
  {
    "placeId": "ChIJef6D02QABDQRg59dMY-eP4A",
    "title": "Sushi Kuu",
    "city": "hongkong",
    "imagePath": "/generated-images/hongkong_18_sushi-kuu_v2.png",
    "location": {
      "lat": 22.2842891,
      "lng": 114.1523973
    },